{"@id":"https://w3id.org/Events","type":"FeatureCollection","@context":"https://w3id.org/locolligo/contexts/linkedplaces.jsonld","features":[{"@id":"https://w3id.org/Events/6ecd7cc5-5fe1-40de-b3a9-6847083c6880","type":"Feature","properties":{"title":"Jerusalem","properties":{"properties":{"label":"The most recent known holder of this ilan is the Meir Benayahu Collection, Jerusalem.","url":"http://localhost:8080/exist/apps/tracing.ilanot.org/event/567-99.xml"}}},"geometry":{"type":"Point","coordinates":[35.2137,31.7683]},"types":[{"label":"Last Known Owner"}]},{"@id":"https://w3id.org/Events/ea4b834c-21b5-459c-8cdb-329d49bd2a61","type":"Feature","properties":{"title":"Oxford","properties":{"properties":{"label":"The most recent known holder of this ilan is the Bodleian Library, Oxford.","url":"http://localhost:8080/exist/apps/tracing.ilanot.org/event/236-99.xml"}}},"geometry":{"type":"Point","coordinates":[-1.2577,51.752]},"types":[{"label":"Last Known Owner"}]},{"@id":"https://w3id.org/Events/7451578f-7f08-4098-a6e2-bbb73a933953","type":"Feature","properties":{"title":"Italy","properties":{"properties":{"label":"The ilan was created in the 16th century in Italy.","url":"http://localhost:8080/exist/apps/tracing.ilanot.org/event/164-01.xml"}}},"geometry":{"type":"Point","coordinates":[12.83333,42.83333]},"types":[{"label":"Manuscript Production"}]},{"@id":"https://w3id.org/Events/f1b8805d-20bf-4bec-af68-e198efd7bf2e","type":"Feature","properties":{"title":"Warsaw","properties":{"properties":{"label":"The most recent known holder of this ilan is the Żydowski Instytut Historyczny, Warsaw.","url":"http://localhost:8080/exist/apps/tracing.ilanot.org/event/467-99.xml"}}},"geometry":{"type":"Point","coordinates":[21.0122,52.2297]},"types":[{"label":"Last Known Owner"}]},{"@id":"https://w3id.org/Events/8cfb3321-43c7-4b67-b968-f8ffe78d9094","type":"Feature","properties":{"title":"Jerusalem","properties":{"properties":{"label":"The most recent known holder of this ilan is the National Library of Israel, Jerusalem.","url":"http://localhost:8080/exist/apps/tracing.ilanot.org/event/336-99.xml"}}},"geometry":{"type":"Point","coordinates":[35.2137,31.7683]},"types":[{"label":"Last Known Owner"}]},{"@id":"https://w3id.org/Events/7db6ff09-82a5-4465-b7b2-3d85ce16aa9c","type":"Feature","properties":{"title":"Ashkenaz","properties":{"properties":{"label":"The ilan was created in the 17th century in Ashkenaz.","url":"http://localhost:8080/exist/apps/tracing.ilanot.org/event/582-01.xml"}}},"geometry":{"type":"Point","coordinates":[10.5,51.5]},"types":[{"label":"Manuscript Production"}]},{"@id":"https://w3id.org/Events/bdd71cc4-f057-41ee-b8bd-261ecbd8ebca","type":"Feature","properties":{"title":"Munich","properties":{"properties":{"label":"The most recent known holder of this ilan is the Bayerische Staatsbibliothek, Munich.","url":"http://localhost:8080/exist/apps/tracing.ilanot.org/event/181-99.xml"}}},"geometry":{"type":"Point","coordinates":[11.582,48.1351]},"types":[{"label":"Last Known Owner"}]},{"@id":"https://w3id.org/Events/e446436c-83e6-4919-b761-586b8401e5e7","type":"Feature","properties":{"title":"New York","properties":{"properties":{"label":"The most recent known holder of this ilan is the Jewish Theological Seminary Library, New York.","url":"http://localhost:8080/exist/apps/tracing.ilanot.org/event/504-99.xml"}}},"geometry":{"type":"Point","coordinates":[-74.006,40.7128]},"types":[{"label":"Last Known Owner"}]},{"@id":"https://w3id.org/Events/d5ee0a4c-6a12-4d84-a38c-fb2ac40bdbc0","type":"Feature","properties":{"title":"Oxford","properties":{"properties":{"label":"The most recent known holder of this ilan is the Bodleian Library, Oxford.","url":"http://localhost:8080/exist/apps/tracing.ilanot.org/event/255-99.xml"}}},"geometry":{"type":"Point","coordinates":[-1.2577,51.752]},"types":[{"label":"Last Known Owner"}]},{"@id":"https://w3id.org/Events/21336ece-3f2e-4f8f-868b-55c0d0ce26ff","type":"Feature","properties":{"title":"Ramat Gan","properties":{"properties":{"label":"The most recent known holder of this ilan is the Bar Ilan University Library, Ramat Gan.","url":"http://localhost:8080/exist/apps/tracing.ilanot.org/event/404-99.xml"}}},"geometry":{"type":"Point","coordinates":[34.8248,32.0684]},"types":[{"label":"Last Known Owner"}]},{"@id":"https://w3id.org/Events/76de7509-e2f5-4cd5-b5c9-f9c4f4b4746d","type":"Feature","properties":{"title":"Jerusalem","properties":{"properties":{"label":"The most recent known holder of this ilan is the National Library of Israel, Jerusalem.","url":"http://localhost:8080/exist/apps/tracing.ilanot.org/event/355-99.xml"}}},"geometry":{"type":"Point","coordinates":[35.2137,31.7683]},"types":[{"label":"Last Known Owner"}]},{"@id":"https://w3id.org/Events/a5faac07-f73d-48c6-88b7-c3a7886161c0","type":"Feature","properties":{"title":"Florence","properties":{"properties":{"label":"The most recent known holder of this ilan is the Biblioteca Medicea Laurenziana, Florence.","url":"http://localhost:8080/exist/apps/tracing.ilanot.org/event/579-99.xml"}}},"geometry":{"type":"Point","coordinates":[11.2558,43.7696]},"types":[{"label":"Last Known Owner"}]},{"@id":"https://w3id.org/Events/88376b42-0d16-4a7b-9277-dee6b3debf62","type":"Feature","properties":{"title":"New York","properties":{"properties":{"label":"The most recent known holder of this ilan is the Jewish Theological Seminary Library, New York.","url":"http://localhost:8080/exist/apps/tracing.ilanot.org/event/228-99.xml"}}},"geometry":{"type":"Point","coordinates":[-74.006,40.7128]},"types":[{"label":"Last Known Owner"}]},{"@id":"https://w3id.org/Events/7e26179e-3ed3-422d-8fe7-5790e21d4e05","type":"Feature","properties":{"title":"Moscow","properties":{"properties":{"label":"The most recent known holder of this ilan is the Russian State Library, Moscow.","url":"http://localhost:8080/exist/apps/tracing.ilanot.org/event/479-99.xml"}}},"geometry":{"type":"Point","coordinates":[37.6176,55.7558]},"types":[{"label":"Last Known Owner"}]},{"@id":"https://w3id.org/Events/00fe9166-614b-4cf6-b846-953352107cd2","type":"Feature","properties":{"title":"London","properties":{"properties":{"label":"The most recent known holder of this ilan is the British Library, London.","url":"http://localhost:8080/exist/apps/tracing.ilanot.org/event/328-99.xml"}}},"geometry":{"type":"Point","coordinates":[-0.1278,51.5074]},"types":[{"label":"Last Known Owner"}]},{"@id":"https://w3id.org/Events/64c094ab-a000-4f9a-8487-16a1925a11ed","type":"Feature","properties":{"title":"London","properties":{"properties":{"label":"The most recent known holder of this ilan is the British Library, London.","url":"http://localhost:8080/exist/apps/tracing.ilanot.org/event/2-99.xml"}}},"geometry":{"type":"Point","coordinates":[-0.1278,51.5074]},"types":[{"label":"Last Known Owner"}]},{"@id":"https://w3id.org/Events/a79a7143-aabf-4979-a30c-151ac8c51b84","type":"Feature","properties":{"title":"Tel Aviv","properties":{"properties":{"label":"The most recent known holder of this ilan is the The Gross Family Collection Trust, Tel Aviv.","url":"http://localhost:8080/exist/apps/tracing.ilanot.org/event/359-99.xml"}}},"geometry":{"type":"Point","coordinates":[34.7818,32.0853]},"types":[{"label":"Last Known Owner"}]},{"@id":"https://w3id.org/Events/4d70c711-f0c9-412a-a5c5-a8417670e604","type":"Feature","properties":{"title":"Ramat Gan","properties":{"properties":{"label":"The most recent known holder of this ilan is the Bar Ilan University Library, Ramat Gan.","url":"http://localhost:8080/exist/apps/tracing.ilanot.org/event/408-99.xml"}}},"geometry":{"type":"Point","coordinates":[34.8248,32.0684]},"types":[{"label":"Last Known Owner"}]},{"@id":"https://w3id.org/Events/e2743b39-1b94-4c07-9131-d917585d5b89","type":"Feature","properties":{"title":"Oxford","properties":{"properties":{"label":"The most recent known holder of this ilan is the Bodleian Library, Oxford.","url":"http://localhost:8080/exist/apps/tracing.ilanot.org/event/259-99.xml"}}},"geometry":{"type":"Point","coordinates":[-1.2577,51.752]},"types":[{"label":"Last Known Owner"}]},{"@id":"https://w3id.org/Events/fb4e1139-6668-4442-b3ba-1c748aa0cc9e","type":"Feature","properties":{"title":"New York","properties":{"properties":{"label":"The most recent known holder of this ilan is the Jewish Theological Seminary Library, New York.","url":"http://localhost:8080/exist/apps/tracing.ilanot.org/event/193-99.xml"}}},"geometry":{"type":"Point","coordinates":[-74.006,40.7128]},"types":[{"label":"Last Known Owner"}]},{"@id":"https://w3id.org/Events/766091d4-e11a-4009-b2b0-f19df190d930","type":"Feature","properties":{"title":"Italy","properties":{"properties":{"label":"The ilan was created in the 14th century in Italy.","url":"http://localhost:8080/exist/apps/tracing.ilanot.org/event/37-01.xml"}}},"geometry":{"type":"Point","coordinates":[12.83333,42.83333]},"types":[{"label":"Manuscript Production"}]},{"@id":"https://w3id.org/Events/3691d7a6-f174-4850-9d5e-9d9a46a26c94","type":"Feature","properties":{"title":"St. Petersburg","properties":{"properties":{"label":"The most recent known holder of this ilan is the Institute of Oriental Manuscripts of the Russian Academy of Sciences, St. Petersburg.","url":"http://localhost:8080/exist/apps/tracing.ilanot.org/event/324-99.xml"}}},"geometry":{"type":"Point","coordinates":[30.3351,59.9343]},"types":[{"label":"Last Known Owner"}]},{"@id":"https://w3id.org/Events/a10173e3-1235-472b-9a89-6e466525267c","type":"Feature","properties":{"title":"Moscow","properties":{"properties":{"label":"The most recent known holder of this ilan is the Russian State Library, Moscow.","url":"http://localhost:8080/exist/apps/tracing.ilanot.org/event/475-99.xml"}}},"geometry":{"type":"Point","coordinates":[37.6176,55.7558]},"types":[{"label":"Last Known Owner"}]},{"@id":"https://w3id.org/Events/bb266efc-a6c0-47eb-ab64-606863f72b51","type":"Feature","properties":{"title":"New York","properties":{"properties":{"label":"The most recent known holder of this ilan is the Jewish Theological Seminary Library, New York.","url":"http://localhost:8080/exist/apps/tracing.ilanot.org/event/224-99.xml"}}},"geometry":{"type":"Point","coordinates":[-74.006,40.7128]},"types":[{"label":"Last Known Owner"}]},{"@id":"https://w3id.org/Events/e4558ea0-94d5-4671-a35d-6a73969c6722","type":"Feature","properties":{"title":"New York","properties":{"properties":{"label":"The most recent known holder of this ilan is the Jewish Theological Seminary Library, New York.","url":"http://localhost:8080/exist/apps/tracing.ilanot.org/event/575-99.xml"}}},"geometry":{"type":"Point","coordinates":[-74.006,40.7128]},"types":[{"label":"Last Known Owner"}]},{"@id":"https://w3id.org/Events/f6f82cda-f2fe-4225-86c1-612427af27a0","type":"Feature","properties":{"title":"Tel Aviv","properties":{"properties":{"label":"The most recent known holder of this ilan is the The Gross Family Collection Trust, Tel Aviv.","url":"http://localhost:8080/exist/apps/tracing.ilanot.org/event/347-99.xml"}}},"geometry":{"type":"Point","coordinates":[34.7818,32.0853]},"types":[{"label":"Last Known Owner"}]},{"@id":"https://w3id.org/Events/08b28d1d-17d6-4d63-b260-1791123fde6c","type":"Feature","properties":{"title":"Ramat Gan","properties":{"properties":{"label":"The most recent known holder of this ilan is the Bar Ilan University Library, Ramat Gan.","url":"http://localhost:8080/exist/apps/tracing.ilanot.org/event/416-99.xml"}}},"geometry":{"type":"Point","coordinates":[34.8248,32.0684]},"types":[{"label":"Last Known Owner"}]},{"@id":"https://w3id.org/Events/5cb9cc8d-130c-4a94-9ba7-69288624b3d9","type":"Feature","properties":{"title":"Oxford","properties":{"properties":{"label":"The most recent known holder of this ilan is the Bodleian Library, Oxford.","url":"http://localhost:8080/exist/apps/tracing.ilanot.org/event/247-99.xml"}}},"geometry":{"type":"Point","coordinates":[-1.2577,51.752]},"types":[{"label":"Last Known Owner"}]},{"@id":"https://w3id.org/Events/5906310c-d578-4442-b678-e8624e3af594","type":"Feature","properties":{"title":"Paris","properties":{"properties":{"label":"The most recent known holder of this ilan is the Victor Klagsbald Collection, Paris.","url":"http://localhost:8080/exist/apps/tracing.ilanot.org/event/516-99.xml"}}},"geometry":{"type":"Point","coordinates":[2.3522,48.8566]},"types":[{"label":"Last Known Owner"}]},{"@id":"https://w3id.org/Events/c3c525fd-c257-4607-b813-38701d8f40d6","type":"Feature","properties":{"title":"London","properties":{"properties":{"label":"The most recent known holder of this ilan is the British Library, London.","url":"http://localhost:8080/exist/apps/tracing.ilanot.org/event/99-99.xml"}}},"geometry":{"type":"Point","coordinates":[-0.1278,51.5074]},"types":[{"label":"Last Known Owner"}]},{"@id":"https://w3id.org/Events/25aa577e-4019-4931-a917-f7b83cb81fbb","type":"Feature","properties":{"title":"Jerusalem","properties":{"properties":{"label":"The most recent known holder of this ilan is the National Library of Israel, Jerusalem.","url":"http://localhost:8080/exist/apps/tracing.ilanot.org/event/443-99.xml"}}},"geometry":{"type":"Point","coordinates":[35.2137,31.7683]},"types":[{"label":"Last Known Owner"}]},{"@id":"https://w3id.org/Events/4e2e7c3b-6fc7-4413-a379-59768bc2bc4d","type":"Feature","properties":{"title":"Ramat Gan","properties":{"properties":{"label":"The most recent known holder of this ilan is the Bar Ilan University Library, Ramat Gan.","url":"http://localhost:8080/exist/apps/tracing.ilanot.org/event/312-99.xml"}}},"geometry":{"type":"Point","coordinates":[34.8248,32.0684]},"types":[{"label":"Last Known Owner"}]},{"@id":"https://w3id.org/Events/5f5f8ac7-6ca8-4ee2-9abc-ef42458276e4","type":"Feature","properties":{"title":"Ramat Gan","properties":{"properties":{"label":"The most recent known holder of this ilan is the Bar Ilan University Library, Ramat Gan.","url":"http://localhost:8080/exist/apps/tracing.ilanot.org/event/543-99.xml"}}},"geometry":{"type":"Point","coordinates":[34.8248,32.0684]},"types":[{"label":"Last Known Owner"}]},{"@id":"https://w3id.org/Events/d18dff7f-2859-4f09-a2a8-0c1fc28cd680","type":"Feature","properties":{"title":"New York","properties":{"properties":{"label":"The most recent known holder of this ilan is the Columbia University Libraries, New York.","url":"http://localhost:8080/exist/apps/tracing.ilanot.org/event/212-99.xml"}}},"geometry":{"type":"Point","coordinates":[-74.006,40.7128]},"types":[{"label":"Last Known Owner"}]},{"@id":"https://w3id.org/Events/363f4e4a-3660-40e8-817d-f42672e8b3da","type":"Feature","properties":{"title":"Italy","properties":{"properties":{"label":"The ilan was created in the 18th century in Italy.","url":"http://localhost:8080/exist/apps/tracing.ilanot.org/event/140-01.xml"}}},"geometry":{"type":"Point","coordinates":[12.83333,42.83333]},"types":[{"label":"Manuscript Production"}]},{"@id":"https://w3id.org/Events/09291b08-d599-4b30-ad5d-68362880849a","type":"Feature","properties":{"title":"North Africa","properties":{"properties":{"label":"The ilan was created in the 18th century in North Africa.","url":"http://localhost:8080/exist/apps/tracing.ilanot.org/event/294-01.xml"}}},"geometry":null,"types":[{"label":"Manuscript Production"}]},{"@id":"https://w3id.org/Events/3d74c60e-a5e1-472a-9880-2af7ce433c40","type":"Feature","properties":{"title":"Bnei Brak","properties":{"properties":{"label":"The most recent known holder of this ilan is the Joseph Eraki Ha-Kohen Collection, Bnei Brak.","url":"http://localhost:8080/exist/apps/tracing.ilanot.org/event/420-99.xml"}}},"geometry":{"type":"Point","coordinates":[34.8338,32.084]},"types":[{"label":"Last Known Owner"}]},{"@id":"https://w3id.org/Events/4403db08-5ecc-4a85-aa3d-619726b8ffb1","type":"Feature","properties":{"title":"Vatican City","properties":{"properties":{"label":"The most recent known holder of this ilan is the Biblioteca Apostolica Vaticana, Vatican City.","url":"http://localhost:8080/exist/apps/tracing.ilanot.org/event/371-99.xml"}}},"geometry":{"type":"Point","coordinates":[12.4534,41.9029]},"types":[{"label":"Last Known Owner"}]},{"@id":"https://w3id.org/Events/ce087bee-875a-4f41-b13d-d59a1bfc699f","type":"Feature","properties":{"title":"Jerusalem","properties":{"properties":{"label":"The most recent known holder of this ilan is the The Schocken Institute for Jewish Research, Jerusalem.","url":"http://localhost:8080/exist/apps/tracing.ilanot.org/event/87-99.xml"}}},"geometry":{"type":"Point","coordinates":[35.2137,31.7683]},"types":[{"label":"Last Known Owner"}]},{"@id":"https://w3id.org/Events/640c63ac-f4bc-4594-a2ae-4b482525d077","type":"Feature","properties":{"title":"Oxford","properties":{"properties":{"label":"The most recent known holder of this ilan is the Bodleian Library, Oxford.","url":"http://localhost:8080/exist/apps/tracing.ilanot.org/event/271-99.xml"}}},"geometry":{"type":"Point","coordinates":[-1.2577,51.752]},"types":[{"label":"Last Known Owner"}]},{"@id":"https://w3id.org/Events/6c651683-90df-4f39-8918-a109891cd090","type":"Feature","properties":{"title":"New York","properties":{"properties":{"label":"The most recent known holder of this ilan is the Jewish Theological Seminary Library, New York.","url":"http://localhost:8080/exist/apps/tracing.ilanot.org/event/200-99.xml"}}},"geometry":{"type":"Point","coordinates":[-74.006,40.7128]},"types":[{"label":"Last Known Owner"}]},{"@id":"https://w3id.org/Events/2368ddad-37f1-4f96-a459-517c8c42822b","type":"Feature","properties":{"title":"New York","properties":{"properties":{"label":"The most recent known holder of this ilan is the Columbia University Libraries, New York.","url":"http://localhost:8080/exist/apps/tracing.ilanot.org/event/551-99.xml"}}},"geometry":{"type":"Point","coordinates":[-74.006,40.7128]},"types":[{"label":"Last Known Owner"}]},{"@id":"https://w3id.org/Events/1c818475-bf8c-4c1b-82c6-2d8fb48a260e","type":"Feature","properties":{"title":"Parma","properties":{"properties":{"label":"The most recent known holder of this ilan is the Biblioteca Palatina, Parma.","url":"http://localhost:8080/exist/apps/tracing.ilanot.org/event/300-99.xml"}}},"geometry":{"type":"Point","coordinates":[10.3279,44.8015]},"types":[{"label":"Last Known Owner"}]},{"@id":"https://w3id.org/Events/5064fc1c-6b10-4d96-95a5-ea9afac8484d","type":"Feature","properties":{"title":"Jerusalem","properties":{"properties":{"label":"The most recent known holder of this ilan is the National Library of Israel, Jerusalem.","url":"http://localhost:8080/exist/apps/tracing.ilanot.org/event/451-99.xml"}}},"geometry":{"type":"Point","coordinates":[35.2137,31.7683]},"types":[{"label":"Last Known Owner"}]},{"@id":"https://w3id.org/Events/8d378c51-32b2-4dbf-a59b-3d3de02ecdae","type":"Feature","properties":{"title":"Oxford","properties":{"properties":{"label":"The most recent known holder of this ilan is the Bodleian Library, Oxford.","url":"http://localhost:8080/exist/apps/tracing.ilanot.org/event/263-99.xml"}}},"geometry":{"type":"Point","coordinates":[-1.2577,51.752]},"types":[{"label":"Last Known Owner"}]},{"@id":"https://w3id.org/Events/6f3b77c6-3e30-4c3d-933c-f22eb244417b","type":"Feature","properties":{"title":"Ramat Gan","properties":{"properties":{"label":"The most recent known holder of this ilan is the Bar Ilan University Library, Ramat Gan.","url":"http://localhost:8080/exist/apps/tracing.ilanot.org/event/532-99.xml"}}},"geometry":{"type":"Point","coordinates":[34.8248,32.0684]},"types":[{"label":"Last Known Owner"}]},{"@id":"https://w3id.org/Events/b0871865-4fdf-43b5-af45-748a28b19229","type":"Feature","properties":{"title":"Byzantium","properties":{"properties":{"label":"The ilan was created in the 15th century in Byzantium.","url":"http://localhost:8080/exist/apps/tracing.ilanot.org/event/386-01.xml"}}},"geometry":{"type":"Point","coordinates":[28.94966,41.01384]},"types":[{"label":"Manuscript Production"}]},{"@id":"https://w3id.org/Events/c53d7e56-572b-4a4e-aca7-ac0cf124ffae","type":"Feature","properties":{"title":"Leeds","properties":{"properties":{"label":"The most recent known holder of this ilan is the Brotherton Library, Leeds.","url":"http://localhost:8080/exist/apps/tracing.ilanot.org/event/95-99.xml"}}},"geometry":{"type":"Point","coordinates":[-1.5491,53.8008]},"types":[{"label":"Last Known Owner"}]},{"@id":"https://w3id.org/Events/c7c8558b-668a-4384-9e51-0be92e2556e3","type":"Feature","properties":{"title":"Italy","properties":{"properties":{"label":"The ilan was created in the 15th century in Italy.","url":"http://localhost:8080/exist/apps/tracing.ilanot.org/event/131-01.xml"}}},"geometry":{"type":"Point","coordinates":[12.83333,42.83333]},"types":[{"label":"Manuscript Production"}]},{"@id":"https://w3id.org/Events/bcd41328-55fb-4343-b33c-4c538f013a88","type":"Feature","properties":{"title":"Italy","properties":{"properties":{"label":"The ilan was created in the 16th century in Italy.","url":"http://localhost:8080/exist/apps/tracing.ilanot.org/event/286-01.xml"}}},"geometry":{"type":"Point","coordinates":[12.83333,42.83333]},"types":[{"label":"Manuscript Production"}]},{"@id":"https://w3id.org/Events/e4a4cf18-78cc-4ec5-b207-484f55eaca86","type":"Feature","properties":{"title":"Jerusalem","properties":{"properties":{"label":"The most recent known holder of this ilan is the National Library of Israel, Jerusalem.","url":"http://localhost:8080/exist/apps/tracing.ilanot.org/event/363-99.xml"}}},"geometry":{"type":"Point","coordinates":[35.2137,31.7683]},"types":[{"label":"Last Known Owner"}]},{"@id":"https://w3id.org/Events/caab40ab-6a38-4dab-ae50-ec57b4852de1","type":"Feature","properties":{"title":"Jerusalem","properties":{"properties":{"label":"The most recent known holder of this ilan is the Israel Museum, Jerusalem.","url":"http://localhost:8080/exist/apps/tracing.ilanot.org/event/432-99.xml"}}},"geometry":{"type":"Point","coordinates":[35.2137,31.7683]},"types":[{"label":"Last Known Owner"}]},{"@id":"https://w3id.org/Events/34816102-2fe6-45d1-9f57-735144cd82e6","type":"Feature","properties":{"title":"Netherlands","properties":{"properties":{"label":"The ilan was created in the 18th century in Netherlands.","url":"http://localhost:8080/exist/apps/tracing.ilanot.org/event/6-01.xml"}}},"geometry":{"type":"Point","coordinates":[5.75,52.25]},"types":[{"label":"Manuscript Production"}]},{"@id":"https://w3id.org/Events/35a96e96-bd42-418b-a7d6-0ab314d3aec6","type":"Feature","properties":{"title":"Jerusalem","properties":{"properties":{"label":"The most recent known holder of this ilan is the Schocken Institute for Jewish Research, Jerusalem.","url":"http://localhost:8080/exist/apps/tracing.ilanot.org/event/498-99.xml"}}},"geometry":{"type":"Point","coordinates":[35.2137,31.7683]},"types":[{"label":"Last Known Owner"}]},{"@id":"https://w3id.org/Events/621938de-b374-42b1-8f06-cbe29f44e359","type":"Feature","properties":{"title":"Florence","properties":{"properties":{"label":"The most recent known holder of this ilan is the Biblioteca Medicea Laurenziana, Florence.","url":"http://localhost:8080/exist/apps/tracing.ilanot.org/event/42-99.xml"}}},"geometry":{"type":"Point","coordinates":[11.2558,43.7696]},"types":[{"label":"Last Known Owner"}]},{"@id":"https://w3id.org/Events/39014c64-d056-485b-a032-0c6fa02a6e5b","type":"Feature","properties":{"title":"London","properties":{"properties":{"label":"The most recent known holder of this ilan is the British Library, London.","url":"http://localhost:8080/exist/apps/tracing.ilanot.org/event/103-99.xml"}}},"geometry":{"type":"Point","coordinates":[-0.1278,51.5074]},"types":[{"label":"Last Known Owner"}]},{"@id":"https://w3id.org/Events/84cf9eed-2697-4bdd-a8c5-0e12a5eb03eb","type":"Feature","properties":{"title":"Ashkenaz","properties":{"properties":{"label":"The ilan was created in the 18th century in Ashkenaz.","url":"http://localhost:8080/exist/apps/tracing.ilanot.org/event/251-01.xml"}}},"geometry":{"type":"Point","coordinates":[10.5,51.5]},"types":[{"label":"Manuscript Production"}]},{"@id":"https://w3id.org/Events/bf38431f-31cc-4fc6-831a-ffdd3e1a7c7f","type":"Feature","properties":{"title":"Morocco","properties":{"properties":{"label":"The ilan was created in the in Morocco.","url":"http://localhost:8080/exist/apps/tracing.ilanot.org/event/463-01.xml"}}},"geometry":{"type":"Point","coordinates":[-0.70312,52.16045]},"types":[{"label":"Manuscript Production"}]},{"@id":"https://w3id.org/Events/4d99d062-c347-4b19-a6e9-adaa641f736b","type":"Feature","properties":{"title":"New York","properties":{"properties":{"label":"The most recent known holder of this ilan is the Jewish Theological Seminary Library, New York.","url":"http://localhost:8080/exist/apps/tracing.ilanot.org/event/586-99.xml"}}},"geometry":{"type":"Point","coordinates":[-74.006,40.7128]},"types":[{"label":"Last Known Owner"}]},{"@id":"https://w3id.org/Events/a55d0b73-0355-48dd-8be4-fd957258a7b5","type":"Feature","properties":{"title":"Ashkenaz","properties":{"properties":{"label":"The ilan was created in the 17th century in Ashkenaz.","url":"http://localhost:8080/exist/apps/tracing.ilanot.org/event/185-01.xml"}}},"geometry":{"type":"Point","coordinates":[10.5,51.5]},"types":[{"label":"Manuscript Production"}]},{"@id":"https://w3id.org/Events/a91db542-7002-4a8b-bd46-7360c9598605","type":"Feature","properties":{"title":"Budapest","properties":{"properties":{"label":"The most recent known holder of this ilan is the Magyar Tudományos Akadémia, Budapest.","url":"http://localhost:8080/exist/apps/tracing.ilanot.org/event/21-99.xml"}}},"geometry":{"type":"Point","coordinates":[19.0402,47.4979]},"types":[{"label":"Last Known Owner"}]},{"@id":"https://w3id.org/Events/3b20cef5-1378-42d9-93e7-603933ab14b1","type":"Feature","properties":{"title":"New York","properties":{"properties":{"label":"The most recent known holder of this ilan is the Columbia University Libraries, New York.","url":"http://localhost:8080/exist/apps/tracing.ilanot.org/event/486-99.xml"}}},"geometry":{"type":"Point","coordinates":[-74.006,40.7128]},"types":[{"label":"Last Known Owner"}]},{"@id":"https://w3id.org/Events/fa93bd2a-5d7a-4131-9936-25eed137b5ca","type":"Feature","properties":{"title":"Ashkenaz","properties":{"properties":{"label":"The ilan was created in the 16th century in Ashkenaz.","url":"http://localhost:8080/exist/apps/tracing.ilanot.org/event/563-01.xml"}}},"geometry":{"type":"Point","coordinates":[10.5,51.5]},"types":[{"label":"Manuscript Production"}]},{"@id":"https://w3id.org/Events/02dc88b6-e0f1-4d9d-ab19-2e070a2148a8","type":"Feature","properties":{"title":"Moscow","properties":{"properties":{"label":"The most recent known holder of this ilan is the Russian State Library, Moscow.","url":"http://localhost:8080/exist/apps/tracing.ilanot.org/event/160-99.xml"}}},"geometry":{"type":"Point","coordinates":[37.6176,55.7558]},"types":[{"label":"Last Known Owner"}]},{"@id":"https://w3id.org/Events/64ccba02-2bc0-4b0b-af07-066b2416a8df","type":"Feature","properties":{"title":"Italy","properties":{"properties":{"label":"The ilan was created in the in Italy.","url":"http://localhost:8080/exist/apps/tracing.ilanot.org/event/189-01.xml"}}},"geometry":{"type":"Point","coordinates":[12.83333,42.83333]},"types":[{"label":"Manuscript Production"}]},{"@id":"https://w3id.org/Events/ab7a0340-b260-4b79-b73b-29f70af0b03b","type":"Feature","properties":{"title":"Spain","properties":{"properties":{"label":"The ilan was created in the 18th century in Spain.","url":"http://localhost:8080/exist/apps/tracing.ilanot.org/event/512-01.xml"}}},"geometry":{"type":"Point","coordinates":[-4,40]},"types":[{"label":"Manuscript Production"}]},{"@id":"https://w3id.org/Events/5a3f434b-e5d0-44fd-9033-c1e1b3a89651","type":"Feature","properties":{"title":"London","properties":{"properties":{"label":"The most recent known holder of this ilan is the British Library, London.","url":"http://localhost:8080/exist/apps/tracing.ilanot.org/event/111-99.xml"}}},"geometry":{"type":"Point","coordinates":[-0.1278,51.5074]},"types":[{"label":"Last Known Owner"}]},{"@id":"https://w3id.org/Events/8f016692-fa69-45c0-b519-2a0cfff7a1b8","type":"Feature","properties":{"title":"Cincinnati","properties":{"properties":{"label":"The most recent known holder of this ilan is the Hebrew Union College, Cincinnati.","url":"http://localhost:8080/exist/apps/tracing.ilanot.org/event/50-99.xml"}}},"geometry":{"type":"Point","coordinates":[-84.512,39.1031]},"types":[{"label":"Last Known Owner"}]},{"@id":"https://w3id.org/Events/4dd4e790-4b36-4d89-87f0-e6200dbcc3f6","type":"Feature","properties":{"title":"Paris","properties":{"properties":{"label":"The most recent known holder of this ilan is the Musée d’art et d’histoire du Judaïsme, Paris.","url":"http://localhost:8080/exist/apps/tracing.ilanot.org/event/172-99.xml"}}},"geometry":{"type":"Point","coordinates":[2.3522,48.8566]},"types":[{"label":"Last Known Owner"}]},{"@id":"https://w3id.org/Events/75cf3035-c30d-4fee-a38f-663e5fdaa792","type":"Feature","properties":{"title":"Zurich","properties":{"properties":{"label":"The most recent known holder of this ilan is the Zentralbibliothek, Zurich.","url":"http://localhost:8080/exist/apps/tracing.ilanot.org/event/494-99.xml"}}},"geometry":{"type":"Point","coordinates":[8.55,47.36667]},"types":[{"label":"Last Known Owner"}]},{"@id":"https://w3id.org/Events/1e6af828-fb6f-4dd1-a765-4edc83897dd1","type":"Feature","properties":{"title":"Ashkenaz","properties":{"properties":{"label":"The ilan was created in the in Ashkenaz.","url":"http://localhost:8080/exist/apps/tracing.ilanot.org/event/571-01.xml"}}},"geometry":{"type":"Point","coordinates":[10.5,51.5]},"types":[{"label":"Manuscript Production"}]},{"@id":"https://w3id.org/Events/2fa62c71-5974-418a-bcfa-7413e54dee60","type":"Feature","properties":{"title":"Cincinnati","properties":{"properties":{"label":"The most recent known holder of this ilan is the Hebrew Union College, Cincinnati.","url":"http://localhost:8080/exist/apps/tracing.ilanot.org/event/33-99.xml"}}},"geometry":{"type":"Point","coordinates":[-84.512,39.1031]},"types":[{"label":"Last Known Owner"}]},{"@id":"https://w3id.org/Events/b2ada3e2-b526-45b7-8417-5c61a0715b71","type":"Feature","properties":{"title":"Ashkenaz","properties":{"properties":{"label":"The ilan was created in the 18th century in Ashkenaz.","url":"http://localhost:8080/exist/apps/tracing.ilanot.org/event/471-01.xml"}}},"geometry":{"type":"Point","coordinates":[10.5,51.5]},"types":[{"label":"Manuscript Production"}]},{"@id":"https://w3id.org/Events/ac9f1075-caa3-4524-8a58-50edf6b8d4a4","type":"Feature","properties":{"title":"Tel Aviv","properties":{"properties":{"label":"The most recent known holder of this ilan is the Beit Ariel, Shaar Zion Library, Tel Aviv.","url":"http://localhost:8080/exist/apps/tracing.ilanot.org/event/594-99.xml"}}},"geometry":{"type":"Point","coordinates":[34.7818,32.0853]},"types":[{"label":"Last Known Owner"}]},{"@id":"https://w3id.org/Events/ee9de0fb-cadc-49f7-9409-1471b638d31f","type":"Feature","properties":{"title":"Italy","properties":{"properties":{"label":"The ilan was created in the 14th century in Italy.","url":"http://localhost:8080/exist/apps/tracing.ilanot.org/event/208-01.xml"}}},"geometry":{"type":"Point","coordinates":[12.83333,42.83333]},"types":[{"label":"Manuscript Production"}]},{"@id":"https://w3id.org/Events/a823ebca-cdf8-45af-957f-6eaf2289b57f","type":"Feature","properties":{"title":"Ashkenaz","properties":{"properties":{"label":"The ilan was created in the 18th century in Ashkenaz.","url":"http://localhost:8080/exist/apps/tracing.ilanot.org/event/308-01.xml"}}},"geometry":{"type":"Point","coordinates":[10.5,51.5]},"types":[{"label":"Manuscript Production"}]},{"@id":"https://w3id.org/Events/e1473326-30ec-4aa7-bc44-742e3e13b9d9","type":"Feature","properties":{"title":"Italy","properties":{"properties":{"label":"The ilan was created in the 18th century in Italy.","url":"http://localhost:8080/exist/apps/tracing.ilanot.org/event/459-01.xml"}}},"geometry":{"type":"Point","coordinates":[12.83333,42.83333]},"types":[{"label":"Manuscript Production"}]},{"@id":"https://w3id.org/Events/069007d7-001b-40b4-a309-e0a91d24f868","type":"Feature","properties":{"title":"Manchester","properties":{"properties":{"label":"The most recent known holder of this ilan is the John Rylands University Library, Manchester.","url":"http://localhost:8080/exist/apps/tracing.ilanot.org/event/127-99.xml"}}},"geometry":{"type":"Point","coordinates":[-2.2426,53.4808]},"types":[{"label":"Last Known Owner"}]},{"@id":"https://w3id.org/Events/9a68c7e4-65e5-4b38-9144-c8c0fc9b3379","type":"Feature","properties":{"title":"Italy","properties":{"properties":{"label":"The ilan was created in the 13th century in Italy.","url":"http://localhost:8080/exist/apps/tracing.ilanot.org/event/275-01.xml"}}},"geometry":{"type":"Point","coordinates":[12.83333,42.83333]},"types":[{"label":"Manuscript Production"}]},{"@id":"https://w3id.org/Events/339d4fde-8a85-4b2b-856a-991daa9e2717","type":"Feature","properties":{"title":"New York","properties":{"properties":{"label":"The most recent known holder of this ilan is the Jewish Theological Seminary Library, New York.","url":"http://localhost:8080/exist/apps/tracing.ilanot.org/event/390-99.xml"}}},"geometry":{"type":"Point","coordinates":[-74.006,40.7128]},"types":[{"label":"Last Known Owner"}]},{"@id":"https://w3id.org/Events/43a8ac04-3665-48df-9b37-5219f13c1470","type":"Feature","properties":{"title":"Jerusalem","properties":{"properties":{"label":"The most recent known holder of this ilan is the National Library of Israel, Jerusalem.","url":"http://localhost:8080/exist/apps/tracing.ilanot.org/event/66-99.xml"}}},"geometry":{"type":"Point","coordinates":[35.2137,31.7683]},"types":[{"label":"Last Known Owner"}]},{"@id":"https://w3id.org/Events/f34b0b21-2784-4145-9a52-9b5c9112d566","type":"Feature","properties":{"title":"Paris","properties":{"properties":{"label":"The most recent known holder of this ilan is the Bibliothèque Nationale de France, Paris.","url":"http://localhost:8080/exist/apps/tracing.ilanot.org/event/290-99.xml"}}},"geometry":{"type":"Point","coordinates":[2.3522,48.8566]},"types":[{"label":"Last Known Owner"}]},{"@id":"https://w3id.org/Events/3b6f130d-c6c3-4c8d-b8e0-5472c6c92eef","type":"Feature","properties":{"title":"Byzantium","properties":{"properties":{"label":"The ilan was created in the 14th century in Byzantium.","url":"http://localhost:8080/exist/apps/tracing.ilanot.org/event/375-01.xml"}}},"geometry":{"type":"Point","coordinates":[28.94966,41.01384]},"types":[{"label":"Manuscript Production"}]},{"@id":"https://w3id.org/Events/4c795a0a-70c0-49bd-81b5-c9eb2f9b404a","type":"Feature","properties":{"title":"Middle East","properties":{"properties":{"label":"The ilan was created in the 19th century in Middle East.","url":"http://localhost:8080/exist/apps/tracing.ilanot.org/event/424-01.xml"}}},"geometry":{"type":"Point","coordinates":[35.85869,33.13906]},"types":[{"label":"Manuscript Production"}]},{"@id":"https://w3id.org/Events/f488e855-f9d3-49b0-94c7-f26f8d965ceb","type":"Feature","properties":{"title":"Italy","properties":{"properties":{"label":"The ilan was created in the in Italy.","url":"http://localhost:8080/exist/apps/tracing.ilanot.org/event/216-01.xml"}}},"geometry":{"type":"Point","coordinates":[12.83333,42.83333]},"types":[{"label":"Manuscript Production"}]},{"@id":"https://w3id.org/Events/3b682c40-958f-4b73-b80c-694343bebd8d","type":"Feature","properties":{"title":"Moscow","properties":{"properties":{"label":"The most recent known holder of this ilan is the Russian State Library, Moscow.","url":"http://localhost:8080/exist/apps/tracing.ilanot.org/event/144-99.xml"}}},"geometry":{"type":"Point","coordinates":[37.6176,55.7558]},"types":[{"label":"Last Known Owner"}]},{"@id":"https://w3id.org/Events/fa110257-8d55-4e37-a4dd-bab26939434f","type":"Feature","properties":{"title":"Montserrat","properties":{"properties":{"label":"The most recent known holder of this ilan is the Abadia de Santa Maria, Montserrat.","url":"http://localhost:8080/exist/apps/tracing.ilanot.org/event/139-99.xml"}}},"geometry":{"type":"Point","coordinates":[1.8371,41.5912]},"types":[{"label":"Last Known Owner"}]},{"@id":"https://w3id.org/Events/5f071e42-1da7-465e-8c9d-2b2daf23ee51","type":"Feature","properties":{"title":"Jerusalem","properties":{"properties":{"label":"The most recent known holder of this ilan is the Lorberbaum Collection, Jerusalem.","url":"http://localhost:8080/exist/apps/tracing.ilanot.org/event/78-99.xml"}}},"geometry":{"type":"Point","coordinates":[35.2137,31.7683]},"types":[{"label":"Last Known Owner"}]},{"@id":"https://w3id.org/Events/fb46549f-eba7-4699-af79-5969239e9369","type":"Feature","properties":{"title":"Moscow","properties":{"properties":{"label":"The most recent known holder of this ilan is the Russian State Library, Moscow.","url":"http://localhost:8080/exist/apps/tracing.ilanot.org/event/148-99.xml"}}},"geometry":{"type":"Point","coordinates":[37.6176,55.7558]},"types":[{"label":"Last Known Owner"}]},{"@id":"https://w3id.org/Events/4ab71049-2d9a-4969-a908-1cf6652e1e33","type":"Feature","properties":{"title":"Paris","properties":{"properties":{"label":"The most recent known holder of this ilan is the Alliance Israélite Universelle, Paris.","url":"http://localhost:8080/exist/apps/tracing.ilanot.org/event/282-99.xml"}}},"geometry":{"type":"Point","coordinates":[2.3522,48.8566]},"types":[{"label":"Last Known Owner"}]},{"@id":"https://w3id.org/Events/c37e880e-d6eb-40ce-a40f-4aabdd9f9b82","type":"Feature","properties":{"title":"Jerusalem","properties":{"properties":{"label":"The most recent known holder of this ilan is the National Library of Israel, Jerusalem.","url":"http://localhost:8080/exist/apps/tracing.ilanot.org/event/74-99.xml"}}},"geometry":{"type":"Point","coordinates":[35.2137,31.7683]},"types":[{"label":"Last Known Owner"}]},{"@id":"https://w3id.org/Events/d1db2a9f-e367-440f-8606-352684f05941","type":"Feature","properties":{"title":"Vatican City","properties":{"properties":{"label":"The most recent known holder of this ilan is the Biblioteca Apostolica Vaticana, Vatican City.","url":"http://localhost:8080/exist/apps/tracing.ilanot.org/event/382-99.xml"}}},"geometry":{"type":"Point","coordinates":[12.4534,41.9029]},"types":[{"label":"Last Known Owner"}]},{"@id":"https://w3id.org/Events/73e5f53b-eec5-4561-be89-bde6871b6a28","type":"Feature","properties":{"title":"Milan","properties":{"properties":{"label":"The most recent known holder of this ilan is the Biblioteca Ambrosiana, Milan.","url":"http://localhost:8080/exist/apps/tracing.ilanot.org/event/135-99.xml"}}},"geometry":{"type":"Point","coordinates":[9.19,45.4642]},"types":[{"label":"Last Known Owner"}]},{"@id":"https://w3id.org/Events/3c0e1f5d-4bbb-47e5-b2e9-a3ddc303bcc6","type":"Feature","properties":{"title":"Budapest","properties":{"properties":{"label":"The most recent known holder of this ilan is the Magyar Tudományos Akadémia, Budapest.","url":"http://localhost:8080/exist/apps/tracing.ilanot.org/event/17-99.xml"}}},"geometry":{"type":"Point","coordinates":[19.0402,47.4979]},"types":[{"label":"Last Known Owner"}]},{"@id":"https://w3id.org/Events/1179d8f4-7453-4d8a-af6f-8e0b12bb5cde","type":"Feature","properties":{"title":"Italy","properties":{"properties":{"label":"The ilan was created in the 18th century in Italy.","url":"http://localhost:8080/exist/apps/tracing.ilanot.org/event/304-01.xml"}}},"geometry":{"type":"Point","coordinates":[12.83333,42.83333]},"types":[{"label":"Manuscript Production"}]},{"@id":"https://w3id.org/Events/03387b92-94cf-482f-83e8-623cb3c39b50","type":"Feature","properties":{"title":"Moscow","properties":{"properties":{"label":"The most recent known holder of this ilan is the Russian State Library, Moscow.","url":"http://localhost:8080/exist/apps/tracing.ilanot.org/event/156-99.xml"}}},"geometry":{"type":"Point","coordinates":[37.6176,55.7558]},"types":[{"label":"Last Known Owner"}]},{"@id":"https://w3id.org/Events/fc55e65e-8e99-43de-9ea2-dc6c3234fe18","type":"Feature","properties":{"title":"Italy","properties":{"properties":{"label":"The ilan was created in the 16th century in Italy.","url":"http://localhost:8080/exist/apps/tracing.ilanot.org/event/204-01.xml"}}},"geometry":{"type":"Point","coordinates":[12.83333,42.83333]},"types":[{"label":"Manuscript Production"}]},{"@id":"https://w3id.org/Events/16ffe44b-155f-4419-8d36-b7b5d337b2aa","type":"Feature","properties":{"title":"Italy","properties":{"properties":{"label":"The ilan was created in the 16th century in Italy.","url":"http://localhost:8080/exist/apps/tracing.ilanot.org/event/379-01.xml"}}},"geometry":{"type":"Point","coordinates":[12.83333,42.83333]},"types":[{"label":"Manuscript Production"}]},{"@id":"https://w3id.org/Events/fbdf4b9e-cc80-4046-9cea-2ff243bbad60","type":"Feature","properties":{"title":"Spain","properties":{"properties":{"label":"The ilan was created in the 16th century in Spain.","url":"http://localhost:8080/exist/apps/tracing.ilanot.org/event/279-01.xml"}}},"geometry":{"type":"Point","coordinates":[-4,40]},"types":[{"label":"Manuscript Production"}]},{"@id":"https://w3id.org/Events/7032fd09-2c66-414c-ba34-93755f897a16","type":"Feature","properties":{"title":"Munich","properties":{"properties":{"label":"The most recent known holder of this ilan is the Bayerische Staatsbibliothek, Munich.","url":"http://localhost:8080/exist/apps/tracing.ilanot.org/event/170-99.xml"}}},"geometry":{"type":"Point","coordinates":[11.582,48.1351]},"types":[{"label":"Last Known Owner"}]},{"@id":"https://w3id.org/Events/5223a4aa-8538-44b9-97a7-24b3a2430d4e","type":"Feature","properties":{"title":"N.N.","properties":{"properties":{"label":"The most recent known holder of this ilan is the N.N., N.N..","url":"http://localhost:8080/exist/apps/tracing.ilanot.org/event/496-99.xml"}}},"geometry":null,"types":[{"label":"Last Known Owner"}]},{"@id":"https://w3id.org/Events/14c0d719-0b4b-48a9-873c-8162d5a6ddef","type":"Feature","properties":{"title":"Spain","properties":{"properties":{"label":"The ilan was created in the 16th century in Spain.","url":"http://localhost:8080/exist/apps/tracing.ilanot.org/event/573-01.xml"}}},"geometry":{"type":"Point","coordinates":[-4,40]},"types":[{"label":"Manuscript Production"}]},{"@id":"https://w3id.org/Events/3ea64c58-71e2-4ae3-a064-82a57c79e383","type":"Feature","properties":{"title":"Cambridge","properties":{"properties":{"label":"The most recent known holder of this ilan is the Trinity College, Cambridge.","url":"http://localhost:8080/exist/apps/tracing.ilanot.org/event/31-99.xml"}}},"geometry":{"type":"Point","coordinates":[0.1218,52.2053]},"types":[{"label":"Last Known Owner"}]},{"@id":"https://w3id.org/Events/5ae68a72-495b-4e42-b0c5-13d590bb757c","type":"Feature","properties":{"title":"Italy","properties":{"properties":{"label":"The ilan was created in the 18th century in Italy.","url":"http://localhost:8080/exist/apps/tracing.ilanot.org/event/473-01.xml"}}},"geometry":{"type":"Point","coordinates":[12.83333,42.83333]},"types":[{"label":"Manuscript Production"}]},{"@id":"https://w3id.org/Events/64025aa6-4366-4fbd-8446-777bb37d4302","type":"Feature","properties":{"title":"Ashkenaz","properties":{"properties":{"label":"The ilan was created in the 18th century in Ashkenaz.","url":"http://localhost:8080/exist/apps/tracing.ilanot.org/event/322-01.xml"}}},"geometry":{"type":"Point","coordinates":[10.5,51.5]},"types":[{"label":"Manuscript Production"}]},{"@id":"https://w3id.org/Events/3bffe793-59ca-4c71-8be2-acc142696e1e","type":"Feature","properties":{"title":"Jerusalem","properties":{"properties":{"label":"The most recent known holder of this ilan is the National Library of Israel, Jerusalem.","url":"http://localhost:8080/exist/apps/tracing.ilanot.org/event/488-99.xml"}}},"geometry":{"type":"Point","coordinates":[35.2137,31.7683]},"types":[{"label":"Last Known Owner"}]},{"@id":"https://w3id.org/Events/aefc2181-1de2-46b5-a211-8796379a13a2","type":"Feature","properties":{"title":"Moscow","properties":{"properties":{"label":"The most recent known holder of this ilan is the Russian State Library, Moscow.","url":"http://localhost:8080/exist/apps/tracing.ilanot.org/event/588-99.xml"}}},"geometry":{"type":"Point","coordinates":[37.6176,55.7558]},"types":[{"label":"Last Known Owner"}]},{"@id":"https://w3id.org/Events/ca12a2bb-049e-464b-9a45-3cafc834d9b8","type":"Feature","properties":{"title":"Middle East","properties":{"properties":{"label":"The ilan was created in the 18th century in Middle East.","url":"http://localhost:8080/exist/apps/tracing.ilanot.org/event/241-01.xml"}}},"geometry":{"type":"Point","coordinates":[35.85869,33.13906]},"types":[{"label":"Manuscript Production"}]},{"@id":"https://w3id.org/Events/fbe0de8b-f95e-4ce6-9b7c-0ab94ea9303e","type":"Feature","properties":{"title":"London","properties":{"properties":{"label":"The most recent known holder of this ilan is the British Library, London.","url":"http://localhost:8080/exist/apps/tracing.ilanot.org/event/113-99.xml"}}},"geometry":{"type":"Point","coordinates":[-0.1278,51.5074]},"types":[{"label":"Last Known Owner"}]},{"@id":"https://w3id.org/Events/0df1e028-a891-468e-b681-cc303e5d671f","type":"Feature","properties":{"title":"Hamburg","properties":{"properties":{"label":"The most recent known holder of this ilan is the Staats- und Universitätsbibliothek, Hamburg.","url":"http://localhost:8080/exist/apps/tracing.ilanot.org/event/52-99.xml"}}},"geometry":{"type":"Point","coordinates":[9.9937,53.5511]},"types":[{"label":"Last Known Owner"}]},{"@id":"https://w3id.org/Events/64972bc4-04eb-4ab3-a64e-809956598f10","type":"Feature","properties":{"title":"Italy","properties":{"properties":{"label":"The ilan was created in the 18th century in Italy.","url":"http://localhost:8080/exist/apps/tracing.ilanot.org/event/461-01.xml"}}},"geometry":{"type":"Point","coordinates":[12.83333,42.83333]},"types":[{"label":"Manuscript Production"}]},{"@id":"https://w3id.org/Events/6c3dc8f4-3851-45a2-8180-544aeee8be66","type":"Feature","properties":{"title":"New York","properties":{"properties":{"label":"The most recent known holder of this ilan is the Jewish Theological Seminary Library, New York.","url":"http://localhost:8080/exist/apps/tracing.ilanot.org/event/584-99.xml"}}},"geometry":{"type":"Point","coordinates":[-74.006,40.7128]},"types":[{"label":"Last Known Owner"}]},{"@id":"https://w3id.org/Events/fd3ce501-9a9c-4c5a-8968-12f682939e62","type":"Feature","properties":{"title":"Cambridge","properties":{"properties":{"label":"The most recent known holder of this ilan is the Cambridge University Library, Cambridge.","url":"http://localhost:8080/exist/apps/tracing.ilanot.org/event/23-99.xml"}}},"geometry":{"type":"Point","coordinates":[0.1218,52.2053]},"types":[{"label":"Last Known Owner"}]},{"@id":"https://w3id.org/Events/f931644f-cafc-4601-a402-7aaaba0cef9c","type":"Feature","properties":{"title":"Mantua","properties":{"properties":{"label":"The most recent known holder of this ilan is the Biblioteca Teresiana, Biblioteca Comunità Ebraica di Mantova, Mantua.","url":"http://localhost:8080/exist/apps/tracing.ilanot.org/event/484-99.xml"}}},"geometry":{"type":"Point","coordinates":[10.7914,45.1564]},"types":[{"label":"Last Known Owner"}]},{"@id":"https://w3id.org/Events/926aa290-2ee3-43a3-a190-19fb76cd13f2","type":"Feature","properties":{"title":"North Africa","properties":{"properties":{"label":"The ilan was created in the 15th century in North Africa.","url":"http://localhost:8080/exist/apps/tracing.ilanot.org/event/230-01.xml"}}},"geometry":null,"types":[{"label":"Manuscript Production"}]},{"@id":"https://w3id.org/Events/fd31e56f-fb16-4034-b06c-0b9ada8587e9","type":"Feature","properties":{"title":"Moscow","properties":{"properties":{"label":"The most recent known holder of this ilan is the Russian State Library, Moscow.","url":"http://localhost:8080/exist/apps/tracing.ilanot.org/event/162-99.xml"}}},"geometry":{"type":"Point","coordinates":[37.6176,55.7558]},"types":[{"label":"Last Known Owner"}]},{"@id":"https://w3id.org/Events/d5ac5bdb-1886-4732-9e2b-c647dd4cc8bf","type":"Feature","properties":{"title":"Italy","properties":{"properties":{"label":"The ilan was created in the 17th century in Italy.","url":"http://localhost:8080/exist/apps/tracing.ilanot.org/event/199-01.xml"}}},"geometry":{"type":"Point","coordinates":[12.83333,42.83333]},"types":[{"label":"Manuscript Production"}]},{"@id":"https://w3id.org/Events/a8fbac6b-1d64-44a0-ba08-2be91a6cc979","type":"Feature","properties":{"title":"Italy","properties":{"properties":{"label":"The ilan was created in the 18th century in Italy.","url":"http://localhost:8080/exist/apps/tracing.ilanot.org/event/4-01.xml"}}},"geometry":{"type":"Point","coordinates":[12.83333,42.83333]},"types":[{"label":"Manuscript Production"}]},{"@id":"https://w3id.org/Events/0298617d-69b9-4a3d-a61e-f6f91e75665f","type":"Feature","properties":{"title":"Florence","properties":{"properties":{"label":"The most recent known holder of this ilan is the Biblioteca Medicea Laurenziana, Florence.","url":"http://localhost:8080/exist/apps/tracing.ilanot.org/event/40-99.xml"}}},"geometry":{"type":"Point","coordinates":[11.2558,43.7696]},"types":[{"label":"Last Known Owner"}]},{"@id":"https://w3id.org/Events/4b2c7a3e-9bfb-4593-8ae7-185b4764f10b","type":"Feature","properties":{"title":"London","properties":{"properties":{"label":"The most recent known holder of this ilan is the British Library, London.","url":"http://localhost:8080/exist/apps/tracing.ilanot.org/event/101-99.xml"}}},"geometry":{"type":"Point","coordinates":[-0.1278,51.5074]},"types":[{"label":"Last Known Owner"}]},{"@id":"https://w3id.org/Events/1c872132-ab7f-4e45-8ef8-003e883f7d0c","type":"Feature","properties":{"title":"Kurdistan","properties":{"properties":{"label":"The ilan was created in the 16th century in Kurdistan.","url":"http://localhost:8080/exist/apps/tracing.ilanot.org/event/502-01.xml"}}},"geometry":{"type":"Point","coordinates":[44,37]},"types":[{"label":"Manuscript Production"}]},{"@id":"https://w3id.org/Events/8095abd9-69df-4426-822c-ab6722614e0f","type":"Feature","properties":{"title":"Budapest","properties":{"properties":{"label":"The most recent known holder of this ilan is the Magyar Tudományos Akadémia, Budapest.","url":"http://localhost:8080/exist/apps/tracing.ilanot.org/event/15-99.xml"}}},"geometry":{"type":"Point","coordinates":[19.0402,47.4979]},"types":[{"label":"Last Known Owner"}]},{"@id":"https://w3id.org/Events/2d2ed40f-a57d-4474-9c97-24e97b1f5d32","type":"Feature","properties":{"title":"Italy","properties":{"properties":{"label":"The ilan was created in the 15th century in Italy.","url":"http://localhost:8080/exist/apps/tracing.ilanot.org/event/457-01.xml"}}},"geometry":{"type":"Point","coordinates":[12.83333,42.83333]},"types":[{"label":"Manuscript Production"}]},{"@id":"https://w3id.org/Events/4cf7acca-2e90-4c93-a1fa-a29c6f2db44c","type":"Feature","properties":{"title":"Moscow","properties":{"properties":{"label":"The most recent known holder of this ilan is the Russian State Library, Moscow.","url":"http://localhost:8080/exist/apps/tracing.ilanot.org/event/154-99.xml"}}},"geometry":{"type":"Point","coordinates":[37.6176,55.7558]},"types":[{"label":"Last Known Owner"}]},{"@id":"https://w3id.org/Events/28c709cd-ac80-412d-8afb-738a924fbb8b","type":"Feature","properties":{"title":"Jerusalem","properties":{"properties":{"label":"The most recent known holder of this ilan is the National Library of Israel, Jerusalem.","url":"http://localhost:8080/exist/apps/tracing.ilanot.org/event/68-99.xml"}}},"geometry":{"type":"Point","coordinates":[35.2137,31.7683]},"types":[{"label":"Last Known Owner"}]},{"@id":"https://w3id.org/Events/7c1d7b0b-acc5-4dd0-ac04-554e919648d6","type":"Feature","properties":{"title":"Mantua","properties":{"properties":{"label":"The most recent known holder of this ilan is the Biblioteca Teresiana, Biblioteca Comunità Ebraica di Mantova, Mantua.","url":"http://localhost:8080/exist/apps/tracing.ilanot.org/event/129-99.xml"}}},"geometry":{"type":"Point","coordinates":[10.7914,45.1564]},"types":[{"label":"Last Known Owner"}]},{"@id":"https://w3id.org/Events/97b86f6c-c1a3-4411-b690-3456e14f9470","type":"Feature","properties":{"title":"Paris","properties":{"properties":{"label":"The most recent known holder of this ilan is the Bibliothèque Nationale de France, Paris.","url":"http://localhost:8080/exist/apps/tracing.ilanot.org/event/280-99.xml"}}},"geometry":{"type":"Point","coordinates":[2.3522,48.8566]},"types":[{"label":"Last Known Owner"}]},{"@id":"https://w3id.org/Events/633b4809-2d9f-487a-bb97-cfbc97269039","type":"Feature","properties":{"title":"Jerusalem","properties":{"properties":{"label":"The most recent known holder of this ilan is the National Library of Israel, Jerusalem.","url":"http://localhost:8080/exist/apps/tracing.ilanot.org/event/76-99.xml"}}},"geometry":{"type":"Point","coordinates":[35.2137,31.7683]},"types":[{"label":"Last Known Owner"}]},{"@id":"https://w3id.org/Events/a0c2457a-1a4a-465c-9e70-a9fdc50483e4","type":"Feature","properties":{"title":"Ashkenaz","properties":{"properties":{"label":"The ilan was created in the 17th century in Ashkenaz.","url":"http://localhost:8080/exist/apps/tracing.ilanot.org/event/265-01.xml"}}},"geometry":{"type":"Point","coordinates":[10.5,51.5]},"types":[{"label":"Manuscript Production"}]},{"@id":"https://w3id.org/Events/81c75326-78f7-43af-b130-15e0e9fa131f","type":"Feature","properties":{"title":"Vatican City","properties":{"properties":{"label":"The most recent known holder of this ilan is the Biblioteca Apostolica Vaticana, Vatican City.","url":"http://localhost:8080/exist/apps/tracing.ilanot.org/event/380-99.xml"}}},"geometry":{"type":"Point","coordinates":[12.4534,41.9029]},"types":[{"label":"Last Known Owner"}]},{"@id":"https://w3id.org/Events/0a132378-abd4-43f2-b665-dca6ccee78b7","type":"Feature","properties":{"title":"Italy","properties":{"properties":{"label":"The ilan was created in the 16th century in Italy.","url":"http://localhost:8080/exist/apps/tracing.ilanot.org/event/93-01.xml"}}},"geometry":{"type":"Point","coordinates":[12.83333,42.83333]},"types":[{"label":"Manuscript Production"}]},{"@id":"https://w3id.org/Events/526833d5-2544-41fa-98bb-bb75c620db32","type":"Feature","properties":{"title":"Modena","properties":{"properties":{"label":"The most recent known holder of this ilan is the Biblioteca Estense Universitaria, Modena.","url":"http://localhost:8080/exist/apps/tracing.ilanot.org/event/137-99.xml"}}},"geometry":{"type":"Point","coordinates":[10.9252,44.6471]},"types":[{"label":"Last Known Owner"}]},{"@id":"https://w3id.org/Events/a1079342-3ef0-45fc-ad2d-c1e94180371f","type":"Feature","properties":{"title":"Moscow","properties":{"properties":{"label":"The most recent known holder of this ilan is the Russian State Library, Moscow.","url":"http://localhost:8080/exist/apps/tracing.ilanot.org/event/146-99.xml"}}},"geometry":{"type":"Point","coordinates":[37.6176,55.7558]},"types":[{"label":"Last Known Owner"}]},{"@id":"https://w3id.org/Events/be7cecf8-acc5-4e58-9405-cfd283f06f0b","type":"Feature","properties":{"title":"North Africa","properties":{"properties":{"label":"The ilan was created in the 18th century in North Africa.","url":"http://localhost:8080/exist/apps/tracing.ilanot.org/event/314-01.xml"}}},"geometry":null,"types":[{"label":"Manuscript Production"}]},{"@id":"https://w3id.org/Events/8b7f47b1-38fb-43e0-beb8-42d629a94a87","type":"Feature","properties":{"title":"Ashkenaz","properties":{"properties":{"label":"The ilan was created in the 18th century in Ashkenaz.","url":"http://localhost:8080/exist/apps/tracing.ilanot.org/event/269-01.xml"}}},"geometry":{"type":"Point","coordinates":[10.5,51.5]},"types":[{"label":"Manuscript Production"}]},{"@id":"https://w3id.org/Events/62a295d9-e8c5-4543-87b6-a358ad653b1f","type":"Feature","properties":{"title":"Ashkenaz","properties":{"properties":{"label":"The ilan was created in the 15th century in Ashkenaz.","url":"http://localhost:8080/exist/apps/tracing.ilanot.org/event/369-01.xml"}}},"geometry":{"type":"Point","coordinates":[10.5,51.5]},"types":[{"label":"Manuscript Production"}]},{"@id":"https://w3id.org/Events/8a39cd4d-2805-4646-b9dc-ba556bbab24e","type":"Feature","properties":{"title":"Moscow","properties":{"properties":{"label":"The most recent known holder of this ilan is the Russian State Library, Moscow.","url":"http://localhost:8080/exist/apps/tracing.ilanot.org/event/158-99.xml"}}},"geometry":{"type":"Point","coordinates":[37.6176,55.7558]},"types":[{"label":"Last Known Owner"}]},{"@id":"https://w3id.org/Events/311aef8a-cccb-481c-8de8-7afb3316fafc","type":"Feature","properties":{"title":"Budapest","properties":{"properties":{"label":"The most recent known holder of this ilan is the Országos Rabbiképző, Budapest.","url":"http://localhost:8080/exist/apps/tracing.ilanot.org/event/19-99.xml"}}},"geometry":{"type":"Point","coordinates":[19.0402,47.4979]},"types":[{"label":"Last Known Owner"}]},{"@id":"https://w3id.org/Events/50e7fc95-ecce-42dc-86b0-35a95ca772e5","type":"Feature","properties":{"title":"Los Angeles","properties":{"properties":{"label":"The most recent known holder of this ilan is the University of California, Los Angeles.","url":"http://localhost:8080/exist/apps/tracing.ilanot.org/event/125-99.xml"}}},"geometry":{"type":"Point","coordinates":[-118.2437,34.0522]},"types":[{"label":"Last Known Owner"}]},{"@id":"https://w3id.org/Events/b6a36872-6ea7-41b9-8b89-d9fc61043891","type":"Feature","properties":{"title":"Italy","properties":{"properties":{"label":"The ilan was created in the 15th century in Italy.","url":"http://localhost:8080/exist/apps/tracing.ilanot.org/event/277-01.xml"}}},"geometry":{"type":"Point","coordinates":[12.83333,42.83333]},"types":[{"label":"Manuscript Production"}]},{"@id":"https://w3id.org/Events/6743a5bd-680a-4634-b843-a20ce94aa88c","type":"Feature","properties":{"title":"New York","properties":{"properties":{"label":"The most recent known holder of this ilan is the Library of Agudas Chassidei Chabad, New York.","url":"http://localhost:8080/exist/apps/tracing.ilanot.org/event/392-99.xml"}}},"geometry":{"type":"Point","coordinates":[-74.006,40.7128]},"types":[{"label":"Last Known Owner"}]},{"@id":"https://w3id.org/Events/3f7b9b02-3118-43b5-a35b-b7c5b3156c51","type":"Feature","properties":{"title":"New York","properties":{"properties":{"label":"The most recent known holder of this ilan is the Jewish Theological Seminary Library, New York.","url":"http://localhost:8080/exist/apps/tracing.ilanot.org/event/64-99.xml"}}},"geometry":{"type":"Point","coordinates":[-74.006,40.7128]},"types":[{"label":"Last Known Owner"}]},{"@id":"https://w3id.org/Events/4d3797ff-44d7-4d44-97c9-c80554e0be1a","type":"Feature","properties":{"title":"Paris","properties":{"properties":{"label":"The most recent known holder of this ilan is the Seminaire Israelite de France (École Rabbinique de Paris), Paris.","url":"http://localhost:8080/exist/apps/tracing.ilanot.org/event/292-99.xml"}}},"geometry":{"type":"Point","coordinates":[2.3522,48.8566]},"types":[{"label":"Last Known Owner"}]},{"@id":"https://w3id.org/Events/c807c1df-d021-4a04-9624-bfcf9fe21663","type":"Feature","properties":{"title":"Jerusalem","properties":{"properties":{"label":"The most recent known holder of this ilan is the National Library of Israel, Jerusalem.","url":"http://localhost:8080/exist/apps/tracing.ilanot.org/event/345-99.xml"}}},"geometry":{"type":"Point","coordinates":[35.2137,31.7683]},"types":[{"label":"Last Known Owner"}]},{"@id":"https://w3id.org/Events/021c0e4a-bf2a-4a5e-8ea5-556f97e24d9a","type":"Feature","properties":{"title":"London","properties":{"properties":{"label":"The most recent known holder of this ilan is the British Library, London.","url":"http://localhost:8080/exist/apps/tracing.ilanot.org/event/414-99.xml"}}},"geometry":{"type":"Point","coordinates":[-0.1278,51.5074]},"types":[{"label":"Last Known Owner"}]},{"@id":"https://w3id.org/Events/8b6e2b52-e968-4e04-9149-cbe92c900173","type":"Feature","properties":{"title":"Oxford","properties":{"properties":{"label":"The most recent known holder of this ilan is the Bodleian Library, Oxford.","url":"http://localhost:8080/exist/apps/tracing.ilanot.org/event/245-99.xml"}}},"geometry":{"type":"Point","coordinates":[-1.2577,51.752]},"types":[{"label":"Last Known Owner"}]},{"@id":"https://w3id.org/Events/60066411-6aa6-4a98-bc18-e20dce4dcc53","type":"Feature","properties":{"title":"Jerusalem","properties":{"properties":{"label":"The most recent known holder of this ilan is the Yeshivat Ahavat Shalom, Jerusalem.","url":"http://localhost:8080/exist/apps/tracing.ilanot.org/event/514-99.xml"}}},"geometry":{"type":"Point","coordinates":[35.2137,31.7683]},"types":[{"label":"Last Known Owner"}]},{"@id":"https://w3id.org/Events/382daa2f-a727-4ab0-9994-348effeb48be","type":"Feature","properties":{"title":"Jerusalem","properties":{"properties":{"label":"The most recent known holder of this ilan is the National Library of Israel, Jerusalem.","url":"http://localhost:8080/exist/apps/tracing.ilanot.org/event/338-99.xml"}}},"geometry":{"type":"Point","coordinates":[35.2137,31.7683]},"types":[{"label":"Last Known Owner"}]},{"@id":"https://w3id.org/Events/eba1ebe3-f4fb-4f30-af89-54e7a034e4ff","type":"Feature","properties":{"title":"Tel Aviv","properties":{"properties":{"label":"The most recent known holder of this ilan is the The Gross Family Collection Trust, Tel Aviv.","url":"http://localhost:8080/exist/apps/tracing.ilanot.org/event/469-99.xml"}}},"geometry":{"type":"Point","coordinates":[34.7818,32.0853]},"types":[{"label":"Last Known Owner"}]},{"@id":"https://w3id.org/Events/7c50babe-a9f6-447d-9cce-d3722ae6d523","type":"Feature","properties":{"title":"Oxford","properties":{"properties":{"label":"The most recent known holder of this ilan is the Bodleian Library, Oxford.","url":"http://localhost:8080/exist/apps/tracing.ilanot.org/event/238-99.xml"}}},"geometry":{"type":"Point","coordinates":[-1.2577,51.752]},"types":[{"label":"Last Known Owner"}]},{"@id":"https://w3id.org/Events/7ff35099-3f85-4190-a29a-591dd3b6ea24","type":"Feature","properties":{"title":"Jerusalem","properties":{"properties":{"label":"The most recent known holder of this ilan is the National Library of Israel, Jerusalem.","url":"http://localhost:8080/exist/apps/tracing.ilanot.org/event/569-99.xml"}}},"geometry":{"type":"Point","coordinates":[35.2137,31.7683]},"types":[{"label":"Last Known Owner"}]},{"@id":"https://w3id.org/Events/3c4408f5-379b-4eaf-8834-410d73d3218b","type":"Feature","properties":{"title":"New York","properties":{"properties":{"label":"The most recent known holder of this ilan is the Jewish Theological Seminary Library, New York.","url":"http://localhost:8080/exist/apps/tracing.ilanot.org/event/191-99.xml"}}},"geometry":{"type":"Point","coordinates":[-74.006,40.7128]},"types":[{"label":"Last Known Owner"}]},{"@id":"https://w3id.org/Events/a9bbb210-5185-4ed8-bce6-746b8784d5cc","type":"Feature","properties":{"title":"Ashkenaz","properties":{"properties":{"label":"The ilan was created in the 18th century in Ashkenaz.","url":"http://localhost:8080/exist/apps/tracing.ilanot.org/event/35-01.xml"}}},"geometry":{"type":"Point","coordinates":[10.5,51.5]},"types":[{"label":"Manuscript Production"}]},{"@id":"https://w3id.org/Events/e4d66eda-83f2-4d91-a0f0-4468c3079c2d","type":"Feature","properties":{"title":"Tel Aviv","properties":{"properties":{"label":"The most recent known holder of this ilan is the Nehorai Collection, Tel Aviv.","url":"http://localhost:8080/exist/apps/tracing.ilanot.org/event/326-99.xml"}}},"geometry":{"type":"Point","coordinates":[34.7818,32.0853]},"types":[{"label":"Last Known Owner"}]},{"@id":"https://w3id.org/Events/dfdb3b9a-8a3f-4ac3-a35b-ae310adfa4f7","type":"Feature","properties":{"title":"Moscow","properties":{"properties":{"label":"The most recent known holder of this ilan is the Russian State Library, Moscow.","url":"http://localhost:8080/exist/apps/tracing.ilanot.org/event/477-99.xml"}}},"geometry":{"type":"Point","coordinates":[37.6176,55.7558]},"types":[{"label":"Last Known Owner"}]},{"@id":"https://w3id.org/Events/f8d1966d-5b17-455b-8251-8b2c5ea697c6","type":"Feature","properties":{"title":"New York","properties":{"properties":{"label":"The most recent known holder of this ilan is the Jewish Theological Seminary Library, New York.","url":"http://localhost:8080/exist/apps/tracing.ilanot.org/event/226-99.xml"}}},"geometry":{"type":"Point","coordinates":[-74.006,40.7128]},"types":[{"label":"Last Known Owner"}]},{"@id":"https://w3id.org/Events/e0de3624-1dd1-4253-9ac5-a599f388fad0","type":"Feature","properties":{"title":"Liverpool","properties":{"properties":{"label":"The most recent known holder of this ilan is the Merseyside County Museum, Liverpool.","url":"http://localhost:8080/exist/apps/tracing.ilanot.org/event/577-99.xml"}}},"geometry":{"type":"Point","coordinates":[-2.991667,53.407222]},"types":[{"label":"Last Known Owner"}]},{"@id":"https://w3id.org/Events/bdedb4b1-5335-462c-8fcd-65ffc3da4d3d","type":"Feature","properties":{"title":"Jerusalem","properties":{"properties":{"label":"The most recent known holder of this ilan is the National Library of Israel, Jerusalem.","url":"http://localhost:8080/exist/apps/tracing.ilanot.org/event/506-99.xml"}}},"geometry":{"type":"Point","coordinates":[35.2137,31.7683]},"types":[{"label":"Last Known Owner"}]},{"@id":"https://w3id.org/Events/1bc1425c-e7aa-4350-a069-d72a11d070e6","type":"Feature","properties":{"title":"Oxford","properties":{"properties":{"label":"The most recent known holder of this ilan is the Bodleian Library, Oxford.","url":"http://localhost:8080/exist/apps/tracing.ilanot.org/event/257-99.xml"}}},"geometry":{"type":"Point","coordinates":[-1.2577,51.752]},"types":[{"label":"Last Known Owner"}]},{"@id":"https://w3id.org/Events/cd9cda61-006f-4787-a7f1-8026d84dfb1e","type":"Feature","properties":{"title":"Vatican City","properties":{"properties":{"label":"The most recent known holder of this ilan is the Biblioteca Apostolica Vaticana, Vatican City.","url":"http://localhost:8080/exist/apps/tracing.ilanot.org/event/406-99.xml"}}},"geometry":{"type":"Point","coordinates":[12.4534,41.9029]},"types":[{"label":"Last Known Owner"}]},{"@id":"https://w3id.org/Events/ea6c2d2e-d046-48e8-85e5-4b96c5d6ef29","type":"Feature","properties":{"title":"Jerusalem","properties":{"properties":{"label":"The most recent known holder of this ilan is the National Library of Israel, Jerusalem.","url":"http://localhost:8080/exist/apps/tracing.ilanot.org/event/357-99.xml"}}},"geometry":{"type":"Point","coordinates":[35.2137,31.7683]},"types":[{"label":"Last Known Owner"}]},{"@id":"https://w3id.org/Events/24a465c3-14cd-487c-a37e-e13dd5bba9a7","type":"Feature","properties":{"title":"Italy","properties":{"properties":{"label":"The ilan was created in the 16th century in Italy.","url":"http://localhost:8080/exist/apps/tracing.ilanot.org/event/39-01.xml"}}},"geometry":{"type":"Point","coordinates":[12.83333,42.83333]},"types":[{"label":"Manuscript Production"}]},{"@id":"https://w3id.org/Events/b8d8472c-6e1f-4ef3-a19a-9b2b8c8dc232","type":"Feature","properties":{"title":"Tel Aviv","properties":{"properties":{"label":"The most recent known holder of this ilan is the The Gross Family Collection Trust, Tel Aviv.","url":"http://localhost:8080/exist/apps/tracing.ilanot.org/event/518-99.xml"}}},"geometry":{"type":"Point","coordinates":[34.7818,32.0853]},"types":[{"label":"Last Known Owner"}]},{"@id":"https://w3id.org/Events/50562ab2-008f-4449-a62c-55f993998e10","type":"Feature","properties":{"title":"Oxford","properties":{"properties":{"label":"The most recent known holder of this ilan is the Bodleian Library, Oxford.","url":"http://localhost:8080/exist/apps/tracing.ilanot.org/event/249-99.xml"}}},"geometry":{"type":"Point","coordinates":[-1.2577,51.752]},"types":[{"label":"Last Known Owner"}]},{"@id":"https://w3id.org/Events/2dfbd674-a5e6-4243-b3f2-781be0c83c20","type":"Feature","properties":{"title":"Tel Aviv","properties":{"properties":{"label":"The most recent known holder of this ilan is the The Gross Family Collection Trust, Tel Aviv.","url":"http://localhost:8080/exist/apps/tracing.ilanot.org/event/418-99.xml"}}},"geometry":{"type":"Point","coordinates":[34.7818,32.0853]},"types":[{"label":"Last Known Owner"}]},{"@id":"https://w3id.org/Events/82ca00bb-b050-4818-a1cf-81dc0cc8c3f2","type":"Feature","properties":{"title":"Jerusalem","properties":{"properties":{"label":"The most recent known holder of this ilan is the National Library of Israel, Jerusalem.","url":"http://localhost:8080/exist/apps/tracing.ilanot.org/event/349-99.xml"}}},"geometry":{"type":"Point","coordinates":[35.2137,31.7683]},"types":[{"label":"Last Known Owner"}]},{"@id":"https://w3id.org/Events/bd002c06-519c-4657-934e-307648ecd522","type":"Feature","properties":{"title":"Spain","properties":{"properties":{"label":"The ilan was created in the 18th century in Spain.","url":"http://localhost:8080/exist/apps/tracing.ilanot.org/event/480-01.xml"}}},"geometry":{"type":"Point","coordinates":[-4,40]},"types":[{"label":"Manuscript Production"}]},{"@id":"https://w3id.org/Events/bfcdcd1e-2adf-4a5b-905c-b6a579de5420","type":"Feature","properties":{"title":"New York","properties":{"properties":{"label":"The most recent known holder of this ilan is the Jewish Theological Seminary Library, New York.","url":"http://localhost:8080/exist/apps/tracing.ilanot.org/event/565-99.xml"}}},"geometry":{"type":"Point","coordinates":[-74.006,40.7128]},"types":[{"label":"Last Known Owner"}]},{"@id":"https://w3id.org/Events/466e4bc9-dab5-47d6-9a4d-eda4cdf96632","type":"Feature","properties":{"title":"Oxford","properties":{"properties":{"label":"The most recent known holder of this ilan is the Bodleian Library, Oxford.","url":"http://localhost:8080/exist/apps/tracing.ilanot.org/event/234-99.xml"}}},"geometry":{"type":"Point","coordinates":[-1.2577,51.752]},"types":[{"label":"Last Known Owner"}]},{"@id":"https://w3id.org/Events/78834e24-6f24-496d-8fee-f91f23da8450","type":"Feature","properties":{"title":"Oxford","properties":{"properties":{"label":"The most recent known holder of this ilan is the Bodleian Libraries, Oxford.","url":"http://localhost:8080/exist/apps/tracing.ilanot.org/event/465-99.xml"}}},"geometry":{"type":"Point","coordinates":[-1.2577,51.752]},"types":[{"label":"Last Known Owner"}]},{"@id":"https://w3id.org/Events/fdc7aa40-dc45-4fd8-9df0-069da779f9b5","type":"Feature","properties":{"title":"Jerusalem","properties":{"properties":{"label":"The most recent known holder of this ilan is the National Library of Israel, Jerusalem.","url":"http://localhost:8080/exist/apps/tracing.ilanot.org/event/334-99.xml"}}},"geometry":{"type":"Point","coordinates":[35.2137,31.7683]},"types":[{"label":"Last Known Owner"}]},{"@id":"https://w3id.org/Events/8992b11f-5e35-48be-9d14-76cb3dd0e061","type":"Feature","properties":{"title":"Spain","properties":{"properties":{"label":"The ilan was created in the 16th century in Spain.","url":"http://localhost:8080/exist/apps/tracing.ilanot.org/event/580-01.xml"}}},"geometry":{"type":"Point","coordinates":[-4,40]},"types":[{"label":"Manuscript Production"}]},{"@id":"https://w3id.org/Events/406dbfb8-92fb-4da0-9739-0c9cd64eeb34","type":"Feature","properties":{"title":"Munich","properties":{"properties":{"label":"The most recent known holder of this ilan is the Bayerische Staatsbibliothek, Munich.","url":"http://localhost:8080/exist/apps/tracing.ilanot.org/event/183-99.xml"}}},"geometry":{"type":"Point","coordinates":[11.582,48.1351]},"types":[{"label":"Last Known Owner"}]},{"@id":"https://w3id.org/Events/19eae5a2-d1f3-49b3-bbf1-c885390cdaf4","type":"Feature","properties":{"title":"Oxford","properties":{"properties":{"label":"The most recent known holder of this ilan is the Bodleian Library, Oxford.","url":"http://localhost:8080/exist/apps/tracing.ilanot.org/event/261-99.xml"}}},"geometry":{"type":"Point","coordinates":[-1.2577,51.752]},"types":[{"label":"Last Known Owner"}]},{"@id":"https://w3id.org/Events/f0c8b356-757e-4308-8991-f27b3ba5bfb0","type":"Feature","properties":{"title":"Jerusalem","properties":{"properties":{"label":"The most recent known holder of this ilan is the Israel Museum, Jerusalem.","url":"http://localhost:8080/exist/apps/tracing.ilanot.org/event/530-99.xml"}}},"geometry":{"type":"Point","coordinates":[35.2137,31.7683]},"types":[{"label":"Last Known Owner"}]},{"@id":"https://w3id.org/Events/5fe054fe-9667-4681-894c-2d6f431f422f","type":"Feature","properties":{"title":"Byzantium","properties":{"properties":{"label":"The ilan was created in the 15th century in Byzantium.","url":"http://localhost:8080/exist/apps/tracing.ilanot.org/event/384-01.xml"}}},"geometry":{"type":"Point","coordinates":[28.94966,41.01384]},"types":[{"label":"Manuscript Production"}]},{"@id":"https://w3id.org/Events/39cdc918-2c3f-4cc6-80b8-1d7626cf9283","type":"Feature","properties":{"title":"Livorno","properties":{"properties":{"label":"The most recent known holder of this ilan is the Biblioteca del Talmud Torah, Livorno.","url":"http://localhost:8080/exist/apps/tracing.ilanot.org/event/97-99.xml"}}},"geometry":{"type":"Point","coordinates":[10.3106,43.5485]},"types":[{"label":"Last Known Owner"}]},{"@id":"https://w3id.org/Events/6a440c84-a105-4be2-940c-349459e73dc3","type":"Feature","properties":{"title":"Ashkenaz","properties":{"properties":{"label":"The ilan was created in the 15th century in Ashkenaz.","url":"http://localhost:8080/exist/apps/tracing.ilanot.org/event/284-01.xml"}}},"geometry":{"type":"Point","coordinates":[10.5,51.5]},"types":[{"label":"Manuscript Production"}]},{"@id":"https://w3id.org/Events/4e2d2407-95c5-4615-96bc-09353e1fd32c","type":"Feature","properties":{"title":"Jerusalem","properties":{"properties":{"label":"The most recent known holder of this ilan is the National Library of Israel, Jerusalem.","url":"http://localhost:8080/exist/apps/tracing.ilanot.org/event/361-99.xml"}}},"geometry":{"type":"Point","coordinates":[35.2137,31.7683]},"types":[{"label":"Last Known Owner"}]},{"@id":"https://w3id.org/Events/7a60c050-eb48-4b1c-a6e0-6f39b74e0c5a","type":"Feature","properties":{"title":"Spain","properties":{"properties":{"label":"The ilan was created in the 15th century in Spain.","url":"http://localhost:8080/exist/apps/tracing.ilanot.org/event/72-01.xml"}}},"geometry":{"type":"Point","coordinates":[-4,40]},"types":[{"label":"Manuscript Production"}]},{"@id":"https://w3id.org/Events/1ea7a9c6-74e1-4b4e-8ebe-810d5fe8386b","type":"Feature","properties":{"title":"Jerusalem","properties":{"properties":{"label":"The most recent known holder of this ilan is the The Schocken Institute for Jewish Research, Jerusalem.","url":"http://localhost:8080/exist/apps/tracing.ilanot.org/event/89-99.xml"}}},"geometry":{"type":"Point","coordinates":[35.2137,31.7683]},"types":[{"label":"Last Known Owner"}]},{"@id":"https://w3id.org/Events/3780df60-9415-4a39-939f-eae0b74489ab","type":"Feature","properties":{"title":"New York","properties":{"properties":{"label":"The most recent known holder of this ilan is the Jewish Theological Seminary Library, New York.","url":"http://localhost:8080/exist/apps/tracing.ilanot.org/event/202-99.xml"}}},"geometry":{"type":"Point","coordinates":[-74.006,40.7128]},"types":[{"label":"Last Known Owner"}]},{"@id":"https://w3id.org/Events/57918473-e237-43b9-a57d-b8b47bf58d13","type":"Feature","properties":{"title":"Moscow","properties":{"properties":{"label":"The most recent known holder of this ilan is the Russian State Library, Moscow.","url":"http://localhost:8080/exist/apps/tracing.ilanot.org/event/553-99.xml"}}},"geometry":{"type":"Point","coordinates":[37.6176,55.7558]},"types":[{"label":"Last Known Owner"}]},{"@id":"https://w3id.org/Events/6b033ae2-fde1-412a-8559-7d94ce1857f2","type":"Feature","properties":{"title":"Italy","properties":{"properties":{"label":"The ilan was created in the 17th century in Italy.","url":"http://localhost:8080/exist/apps/tracing.ilanot.org/event/11-01.xml"}}},"geometry":{"type":"Point","coordinates":[12.83333,42.83333]},"types":[{"label":"Manuscript Production"}]},{"@id":"https://w3id.org/Events/a8629bec-0520-40ed-96d0-429c646e079e","type":"Feature","properties":{"title":"Parma","properties":{"properties":{"label":"The most recent known holder of this ilan is the Biblioteca Palatina, Parma.","url":"http://localhost:8080/exist/apps/tracing.ilanot.org/event/302-99.xml"}}},"geometry":{"type":"Point","coordinates":[10.3279,44.8015]},"types":[{"label":"Last Known Owner"}]},{"@id":"https://w3id.org/Events/5f747664-eb94-4f9c-9b74-a75d41e948a2","type":"Feature","properties":{"title":"Jerusalem","properties":{"properties":{"label":"The most recent known holder of this ilan is the National Library of Israel, Jerusalem.","url":"http://localhost:8080/exist/apps/tracing.ilanot.org/event/453-99.xml"}}},"geometry":{"type":"Point","coordinates":[35.2137,31.7683]},"types":[{"label":"Last Known Owner"}]},{"@id":"https://w3id.org/Events/5c3600c7-9f29-41a3-8fff-f5217b069aa5","type":"Feature","properties":{"title":"Vatican City","properties":{"properties":{"label":"The most recent known holder of this ilan is the Biblioteca Apostolica Vaticana, Vatican City.","url":"http://localhost:8080/exist/apps/tracing.ilanot.org/event/373-99.xml"}}},"geometry":{"type":"Point","coordinates":[12.4534,41.9029]},"types":[{"label":"Last Known Owner"}]},{"@id":"https://w3id.org/Events/059d01c3-a2ae-4741-b08a-cdd1295c07d6","type":"Feature","properties":{"title":"Jerusalem","properties":{"properties":{"label":"The most recent known holder of this ilan is the Mosad ha-Rav Kook, Jerusalem.","url":"http://localhost:8080/exist/apps/tracing.ilanot.org/event/85-99.xml"}}},"geometry":{"type":"Point","coordinates":[35.2137,31.7683]},"types":[{"label":"Last Known Owner"}]},{"@id":"https://w3id.org/Events/639f176b-7776-4d73-b845-ae6f02855482","type":"Feature","properties":{"title":"Italy","properties":{"properties":{"label":"The ilan was created in the 18th century in Italy.","url":"http://localhost:8080/exist/apps/tracing.ilanot.org/event/121-01.xml"}}},"geometry":{"type":"Point","coordinates":[12.83333,42.83333]},"types":[{"label":"Manuscript Production"}]},{"@id":"https://w3id.org/Events/bb7503a6-0b9a-4ae7-975a-3655a02407bf","type":"Feature","properties":{"title":"New York","properties":{"properties":{"label":"The most recent known holder of this ilan is the Jewish Theological Seminary Library, New York.","url":"http://localhost:8080/exist/apps/tracing.ilanot.org/event/522-99.xml"}}},"geometry":{"type":"Point","coordinates":[-74.006,40.7128]},"types":[{"label":"Last Known Owner"}]},{"@id":"https://w3id.org/Events/e9b73eca-848c-4bbf-a5a6-53bf11305190","type":"Feature","properties":{"title":"Oxford","properties":{"properties":{"label":"The most recent known holder of this ilan is the Bodleian Library, Oxford.","url":"http://localhost:8080/exist/apps/tracing.ilanot.org/event/273-99.xml"}}},"geometry":{"type":"Point","coordinates":[-1.2577,51.752]},"types":[{"label":"Last Known Owner"}]},{"@id":"https://w3id.org/Events/dd4514cd-93ed-4bd2-b04e-08427b54fb5c","type":"Feature","properties":{"title":"Ashkenaz","properties":{"properties":{"label":"The ilan was created in the 16th century in Ashkenaz.","url":"http://localhost:8080/exist/apps/tracing.ilanot.org/event/288-01.xml"}}},"geometry":{"type":"Point","coordinates":[10.5,51.5]},"types":[{"label":"Manuscript Production"}]},{"@id":"https://w3id.org/Events/71472819-fbb2-4159-ba9d-c842d60913f9","type":"Feature","properties":{"title":"Jerusalem","properties":{"properties":{"label":"The most recent known holder of this ilan is the National Library of Israel, Jerusalem.","url":"http://localhost:8080/exist/apps/tracing.ilanot.org/event/441-99.xml"}}},"geometry":{"type":"Point","coordinates":[35.2137,31.7683]},"types":[{"label":"Last Known Owner"}]},{"@id":"https://w3id.org/Events/fa6ed82a-19c9-4265-bf3e-8c14fe914b05","type":"Feature","properties":{"title":"Prague","properties":{"properties":{"label":"The most recent known holder of this ilan is the Židovské Muzeum v Praze (Jewish Museum), Prague.","url":"http://localhost:8080/exist/apps/tracing.ilanot.org/event/310-99.xml"}}},"geometry":{"type":"Point","coordinates":[14.4378,50.0755]},"types":[{"label":"Last Known Owner"}]},{"@id":"https://w3id.org/Events/7c1a0d76-8f94-47a0-8da5-88e0fa8e3716","type":"Feature","properties":{"title":"Jerusalem","properties":{"properties":{"label":"The most recent known holder of this ilan is the National Library of Israel, Jerusalem.","url":"http://localhost:8080/exist/apps/tracing.ilanot.org/event/541-99.xml"}}},"geometry":{"type":"Point","coordinates":[35.2137,31.7683]},"types":[{"label":"Last Known Owner"}]},{"@id":"https://w3id.org/Events/79ec70f5-80b7-43b6-b1d0-e68c3551bc8e","type":"Feature","properties":{"title":"New York","properties":{"properties":{"label":"The most recent known holder of this ilan is the Columbia University Libraries, New York.","url":"http://localhost:8080/exist/apps/tracing.ilanot.org/event/210-99.xml"}}},"geometry":{"type":"Point","coordinates":[-74.006,40.7128]},"types":[{"label":"Last Known Owner"}]},{"@id":"https://w3id.org/Events/96db7dc3-0249-46d5-83a2-38769e14299c","type":"Feature","properties":{"title":"Vatican City","properties":{"properties":{"label":"The most recent known holder of this ilan is the Biblioteca Apostolica Vaticana, Vatican City.","url":"http://localhost:8080/exist/apps/tracing.ilanot.org/event/388-99.xml"}}},"geometry":{"type":"Point","coordinates":[12.4534,41.9029]},"types":[{"label":"Last Known Owner"}]},{"@id":"https://w3id.org/Events/610c6952-e6fd-48d9-8411-d17c677044f1","type":"Feature","properties":{"title":"Paris","properties":{"properties":{"label":"The most recent known holder of this ilan is the Bibliothèque Nationale de France, Paris.","url":"http://localhost:8080/exist/apps/tracing.ilanot.org/event/288-99.xml"}}},"geometry":{"type":"Point","coordinates":[2.3522,48.8566]},"types":[{"label":"Last Known Owner"}]},{"@id":"https://w3id.org/Events/11e1f02f-b2b5-47ca-ae09-845a6add70c6","type":"Feature","properties":{"title":"Middle East","properties":{"properties":{"label":"The ilan was created in the 16th century in Middle East.","url":"http://localhost:8080/exist/apps/tracing.ilanot.org/event/210-01.xml"}}},"geometry":{"type":"Point","coordinates":[35.85869,33.13906]},"types":[{"label":"Manuscript Production"}]},{"@id":"https://w3id.org/Events/0b0e3019-d0d7-4168-833a-7f0f1d09feee","type":"Feature","properties":{"title":"Moscow","properties":{"properties":{"label":"The most recent known holder of this ilan is the Russian State Library, Moscow.","url":"http://localhost:8080/exist/apps/tracing.ilanot.org/event/142-99.xml"}}},"geometry":{"type":"Point","coordinates":[37.6176,55.7558]},"types":[{"label":"Last Known Owner"}]},{"@id":"https://w3id.org/Events/e8525440-5adc-4f3c-89b6-1354e7a0cf59","type":"Feature","properties":{"title":"Ashkenaz","properties":{"properties":{"label":"The ilan was created in the 18th century in Ashkenaz.","url":"http://localhost:8080/exist/apps/tracing.ilanot.org/event/310-01.xml"}}},"geometry":{"type":"Point","coordinates":[10.5,51.5]},"types":[{"label":"Manuscript Production"}]},{"@id":"https://w3id.org/Events/55ce1603-1a7d-46a0-9c12-db0de5b2016b","type":"Feature","properties":{"title":"London","properties":{"properties":{"label":"The most recent known holder of this ilan is the British Library, London.","url":"http://localhost:8080/exist/apps/tracing.ilanot.org/event/121-99.xml"}}},"geometry":{"type":"Point","coordinates":[-0.1278,51.5074]},"types":[{"label":"Last Known Owner"}]},{"@id":"https://w3id.org/Events/7e23cfdd-e91b-4f64-993c-95767fd89435","type":"Feature","properties":{"title":"Mantua","properties":{"properties":{"label":"The most recent known holder of this ilan is the Biblioteca Teresiana, Biblioteca Comunità Ebraica di Mantova, Mantua.","url":"http://localhost:8080/exist/apps/tracing.ilanot.org/event/396-99.xml"}}},"geometry":{"type":"Point","coordinates":[10.7914,45.1564]},"types":[{"label":"Last Known Owner"}]},{"@id":"https://w3id.org/Events/46b13db1-bfcd-4140-96a7-60f9c3d701f7","type":"Feature","properties":{"title":"Jerusalem","properties":{"properties":{"label":"The most recent known holder of this ilan is the Meir Benayahu Collection, Jerusalem.","url":"http://localhost:8080/exist/apps/tracing.ilanot.org/event/60-99.xml"}}},"geometry":{"type":"Point","coordinates":[35.2137,31.7683]},"types":[{"label":"Last Known Owner"}]},{"@id":"https://w3id.org/Events/9b9c9fb2-f9ed-410d-8f19-856526555c8c","type":"Feature","properties":{"title":"Parma","properties":{"properties":{"label":"The most recent known holder of this ilan is the Biblioteca Palatina, Parma.","url":"http://localhost:8080/exist/apps/tracing.ilanot.org/event/296-99.xml"}}},"geometry":{"type":"Point","coordinates":[10.3279,44.8015]},"types":[{"label":"Last Known Owner"}]},{"@id":"https://w3id.org/Events/6d1fc5e0-dcd0-4bda-9027-8c0f8d459b8d","type":"Feature","properties":{"title":"Berlin","properties":{"properties":{"label":"The most recent known holder of this ilan is the Staatsbibliothek zu Berlin, Berlin.","url":"http://localhost:8080/exist/apps/tracing.ilanot.org/event/11-99.xml"}}},"geometry":{"type":"Point","coordinates":[13.405,52.52]},"types":[{"label":"Last Known Owner"}]},{"@id":"https://w3id.org/Events/a6659c60-8554-4488-b045-e06025283330","type":"Feature","properties":{"title":"Italy","properties":{"properties":{"label":"The ilan was created in the 18th century in Italy.","url":"http://localhost:8080/exist/apps/tracing.ilanot.org/event/302-01.xml"}}},"geometry":{"type":"Point","coordinates":[12.83333,42.83333]},"types":[{"label":"Manuscript Production"}]},{"@id":"https://w3id.org/Events/d06a974f-c033-48a9-bf9b-4c85d8530bd7","type":"Feature","properties":{"title":"Moscow","properties":{"properties":{"label":"The most recent known holder of this ilan is the Russian State Library, Moscow.","url":"http://localhost:8080/exist/apps/tracing.ilanot.org/event/150-99.xml"}}},"geometry":{"type":"Point","coordinates":[37.6176,55.7558]},"types":[{"label":"Last Known Owner"}]},{"@id":"https://w3id.org/Events/7681ce1c-6778-4448-81b2-af4a5357c63b","type":"Feature","properties":{"title":"Paris","properties":{"properties":{"label":"The most recent known holder of this ilan is the Bibliothèque Nationale de France, Paris.","url":"http://localhost:8080/exist/apps/tracing.ilanot.org/event/284-99.xml"}}},"geometry":{"type":"Point","coordinates":[2.3522,48.8566]},"types":[{"label":"Last Known Owner"}]},{"@id":"https://w3id.org/Events/6a16d440-aa1d-4bfc-97bb-875809df110c","type":"Feature","properties":{"title":"Jerusalem","properties":{"properties":{"label":"The most recent known holder of this ilan is the National Library of Israel, Jerusalem.","url":"http://localhost:8080/exist/apps/tracing.ilanot.org/event/72-99.xml"}}},"geometry":{"type":"Point","coordinates":[35.2137,31.7683]},"types":[{"label":"Last Known Owner"}]},{"@id":"https://w3id.org/Events/dc114fb1-1473-46b5-aed7-c271cccc4889","type":"Feature","properties":{"title":"Vatican City","properties":{"properties":{"label":"The most recent known holder of this ilan is the Biblioteca Apostolica Vaticana, Vatican City.","url":"http://localhost:8080/exist/apps/tracing.ilanot.org/event/384-99.xml"}}},"geometry":{"type":"Point","coordinates":[12.4534,41.9029]},"types":[{"label":"Last Known Owner"}]},{"@id":"https://w3id.org/Events/4045deb0-5c39-4b0b-b1ed-50053fbe1b79","type":"Feature","properties":{"title":"Italy","properties":{"properties":{"label":"The ilan was created in the 16th century in Italy.","url":"http://localhost:8080/exist/apps/tracing.ilanot.org/event/97-01.xml"}}},"geometry":{"type":"Point","coordinates":[12.83333,42.83333]},"types":[{"label":"Manuscript Production"}]},{"@id":"https://w3id.org/Events/e7cf6fc0-3313-46c9-ad66-70043f4a498e","type":"Feature","properties":{"title":"Milan","properties":{"properties":{"label":"The most recent known holder of this ilan is the Biblioteca Ambrosiana, Milan.","url":"http://localhost:8080/exist/apps/tracing.ilanot.org/event/133-99.xml"}}},"geometry":{"type":"Point","coordinates":[9.19,45.4642]},"types":[{"label":"Last Known Owner"}]},{"@id":"https://w3id.org/Events/4debe904-9c12-49bb-8162-1bf86f80b843","type":"Feature","properties":{"title":"Land of Israel","properties":{"properties":{"label":"The ilan was created in the 19th century in Land of Israel.","url":"http://localhost:8080/exist/apps/tracing.ilanot.org/event/518-01.xml"}}},"geometry":{"type":"Point","coordinates":[34.75,31.5]},"types":[{"label":"Manuscript Production"}]},{"@id":"https://w3id.org/Events/bcb674ad-54f8-4287-98e7-8686b97a61de","type":"Feature","properties":{"title":"Florence","properties":{"properties":{"label":"The most recent known holder of this ilan is the Biblioteca Medicea Laurenziana, Florence.","url":"http://localhost:8080/exist/apps/tracing.ilanot.org/event/580-99.xml"}}},"geometry":{"type":"Point","coordinates":[11.2558,43.7696]},"types":[{"label":"Last Known Owner"}]},{"@id":"https://w3id.org/Events/70ab127f-6cba-408c-b988-fbc58ff12e65","type":"Feature","properties":{"title":"Cambridge, MA","properties":{"properties":{"label":"The most recent known holder of this ilan is the Harvard University, Cambridge, MA.","url":"http://localhost:8080/exist/apps/tracing.ilanot.org/event/27-99.xml"}}},"geometry":{"type":"Point","coordinates":[-71.1097,42.3736]},"types":[{"label":"Last Known Owner"}]},{"@id":"https://w3id.org/Events/9af6ecc2-2b4f-44ea-b99c-401ed54f860d","type":"Feature","properties":{"title":"London","properties":{"properties":{"label":"The most recent known holder of this ilan is the British Library, London.","url":"http://localhost:8080/exist/apps/tracing.ilanot.org/event/480-99.xml"}}},"geometry":{"type":"Point","coordinates":[-0.1278,51.5074]},"types":[{"label":"Last Known Owner"}]},{"@id":"https://w3id.org/Events/7d931917-21b0-42d0-aa45-9b2cbaa735bd","type":"Feature","properties":{"title":"North Africa","properties":{"properties":{"label":"The ilan was created in the 16th century in North Africa.","url":"http://localhost:8080/exist/apps/tracing.ilanot.org/event/565-01.xml"}}},"geometry":null,"types":[{"label":"Manuscript Production"}]},{"@id":"https://w3id.org/Events/23a0d190-603e-44d4-a7e7-871555f13e8c","type":"Feature","properties":{"title":"Ashkenaz","properties":{"properties":{"label":"The ilan was created in the 18th century in Ashkenaz.","url":"http://localhost:8080/exist/apps/tracing.ilanot.org/event/234-01.xml"}}},"geometry":{"type":"Point","coordinates":[10.5,51.5]},"types":[{"label":"Manuscript Production"}]},{"@id":"https://w3id.org/Events/a541e2d2-82ea-43c9-9c2e-6291500739ec","type":"Feature","properties":{"title":"Munich","properties":{"properties":{"label":"The most recent known holder of this ilan is the Bayerische Staatsbibliothek, Munich.","url":"http://localhost:8080/exist/apps/tracing.ilanot.org/event/166-99.xml"}}},"geometry":{"type":"Point","coordinates":[11.582,48.1351]},"types":[{"label":"Last Known Owner"}]},{"@id":"https://w3id.org/Events/b00dfd2a-9771-491e-a266-d1c1bd0ba51d","type":"Feature","properties":{"title":"Frankfurt am Main","properties":{"properties":{"label":"The most recent known holder of this ilan is the Universitätsbibliothek Johann Christian Senckenberg, Frankfurt am Main.","url":"http://localhost:8080/exist/apps/tracing.ilanot.org/event/44-99.xml"}}},"geometry":{"type":"Point","coordinates":[8.6821,50.1109]},"types":[{"label":"Last Known Owner"}]},{"@id":"https://w3id.org/Events/7f368714-b05c-45fe-92a6-c9cc7e542994","type":"Feature","properties":{"title":"London","properties":{"properties":{"label":"The most recent known holder of this ilan is the British Library, London.","url":"http://localhost:8080/exist/apps/tracing.ilanot.org/event/105-99.xml"}}},"geometry":{"type":"Point","coordinates":[-0.1278,51.5074]},"types":[{"label":"Last Known Owner"}]},{"@id":"https://w3id.org/Events/75d56726-b31a-40f8-ad5e-d38105512ca6","type":"Feature","properties":{"title":"Florence","properties":{"properties":{"label":"The most recent known holder of this ilan is the Biblioteca Medicea Laurenziana, Florence.","url":"http://localhost:8080/exist/apps/tracing.ilanot.org/event/39-99.xml"}}},"geometry":{"type":"Point","coordinates":[11.2558,43.7696]},"types":[{"label":"Last Known Owner"}]},{"@id":"https://w3id.org/Events/a568f88e-534e-4497-8608-c7cc1db743c5","type":"Feature","properties":{"title":"Munich","properties":{"properties":{"label":"The most recent known holder of this ilan is the Bayerische Staatsbibliothek, Munich.","url":"http://localhost:8080/exist/apps/tracing.ilanot.org/event/178-99.xml"}}},"geometry":{"type":"Point","coordinates":[11.582,48.1351]},"types":[{"label":"Last Known Owner"}]},{"@id":"https://w3id.org/Events/eb5334bf-0e95-40c1-ad9a-da9188dbfc65","type":"Feature","properties":{"title":"London","properties":{"properties":{"label":"The most recent known holder of this ilan is the British Library, London.","url":"http://localhost:8080/exist/apps/tracing.ilanot.org/event/109-99.xml"}}},"geometry":{"type":"Point","coordinates":[-0.1278,51.5074]},"types":[{"label":"Last Known Owner"}]},{"@id":"https://w3id.org/Events/6fcffb4d-86a5-48fa-8dc1-07c48c93381b","type":"Feature","properties":{"title":"Tel Aviv","properties":{"properties":{"label":"The most recent known holder of this ilan is the The Gross Family Collection Trust, Tel Aviv.","url":"http://localhost:8080/exist/apps/tracing.ilanot.org/event/48-99.xml"}}},"geometry":{"type":"Point","coordinates":[34.7818,32.0853]},"types":[{"label":"Last Known Owner"}]},{"@id":"https://w3id.org/Events/35c5739e-6fc5-405e-b5b1-dd3b8f2f0ad4","type":"Feature","properties":{"title":"Munich","properties":{"properties":{"label":"The most recent known holder of this ilan is the Bayerische Staatsbibliothek, Munich.","url":"http://localhost:8080/exist/apps/tracing.ilanot.org/event/174-99.xml"}}},"geometry":{"type":"Point","coordinates":[11.582,48.1351]},"types":[{"label":"Last Known Owner"}]},{"@id":"https://w3id.org/Events/4139518a-ead9-417c-989d-a0040028147b","type":"Feature","properties":{"title":"Tel Aviv","properties":{"properties":{"label":"The most recent known holder of this ilan is the The Gross Family Collection Trust, Tel Aviv.","url":"http://localhost:8080/exist/apps/tracing.ilanot.org/event/492-99.xml"}}},"geometry":{"type":"Point","coordinates":[34.7818,32.0853]},"types":[{"label":"Last Known Owner"}]},{"@id":"https://w3id.org/Events/4e8481fb-e318-4f7c-8322-81e148814c16","type":"Feature","properties":{"title":"Spain","properties":{"properties":{"label":"The ilan was created in the 14th century in Spain.","url":"http://localhost:8080/exist/apps/tracing.ilanot.org/event/577-01.xml"}}},"geometry":{"type":"Point","coordinates":[-4,40]},"types":[{"label":"Manuscript Production"}]},{"@id":"https://w3id.org/Events/91b5f109-64de-4cc1-840e-85a7e9c4b908","type":"Feature","properties":{"title":"Copenhagen","properties":{"properties":{"label":"The most recent known holder of this ilan is the Det Kongelige Bibliotek, Copenhagen.","url":"http://localhost:8080/exist/apps/tracing.ilanot.org/event/35-99.xml"}}},"geometry":{"type":"Point","coordinates":[12.5683,55.6761]},"types":[{"label":"Last Known Owner"}]},{"@id":"https://w3id.org/Events/b745f110-f2ea-481f-8138-613d6920fad5","type":"Feature","properties":{"title":"Yemen","properties":{"properties":{"label":"The ilan was created in the in Yemen.","url":"http://localhost:8080/exist/apps/tracing.ilanot.org/event/477-01.xml"}}},"geometry":{"type":"Point","coordinates":[47.5,15.5]},"types":[{"label":"Manuscript Production"}]},{"@id":"https://w3id.org/Events/e0179b88-3468-42ca-89f8-b1967bbdca09","type":"Feature","properties":{"title":"Vatican City","properties":{"properties":{"label":"The most recent known holder of this ilan is the Biblioteca Apostolica Vaticana, Vatican City.","url":"http://localhost:8080/exist/apps/tracing.ilanot.org/event/592-99.xml"}}},"geometry":{"type":"Point","coordinates":[12.4534,41.9029]},"types":[{"label":"Last Known Owner"}]},{"@id":"https://w3id.org/Events/917a9897-c05b-40be-9dac-7376071eb6c7","type":"Feature","properties":{"title":"North Africa","properties":{"properties":{"label":"The ilan was created in the 17th century in North Africa.","url":"http://localhost:8080/exist/apps/tracing.ilanot.org/event/514-01.xml"}}},"geometry":null,"types":[{"label":"Manuscript Production"}]},{"@id":"https://w3id.org/Events/849e1a27-279b-4298-9641-7183503ae61f","type":"Feature","properties":{"title":"London","properties":{"properties":{"label":"The most recent known holder of this ilan is the British Library, London.","url":"http://localhost:8080/exist/apps/tracing.ilanot.org/event/117-99.xml"}}},"geometry":{"type":"Point","coordinates":[-0.1278,51.5074]},"types":[{"label":"Last Known Owner"}]},{"@id":"https://w3id.org/Events/577c4619-0a33-4a24-ba1d-c9f3db14b651","type":"Feature","properties":{"title":"Tel Aviv","properties":{"properties":{"label":"The most recent known holder of this ilan is the The Gross Family Collection Trust, Tel Aviv.","url":"http://localhost:8080/exist/apps/tracing.ilanot.org/event/56-99.xml"}}},"geometry":{"type":"Point","coordinates":[34.7818,32.0853]},"types":[{"label":"Last Known Owner"}]},{"@id":"https://w3id.org/Events/00f0d186-0cf8-4ee4-b8ae-a8fc2d88bb3c","type":"Feature","properties":{"title":"Ashkenaz","properties":{"properties":{"label":"The ilan was created in the 18th century in Ashkenaz.","url":"http://localhost:8080/exist/apps/tracing.ilanot.org/event/238-01.xml"}}},"geometry":{"type":"Point","coordinates":[10.5,51.5]},"types":[{"label":"Manuscript Production"}]},{"@id":"https://w3id.org/Events/4e6a8416-e6ff-4b54-875e-a19c4044cf09","type":"Feature","properties":{"title":"Spain","properties":{"properties":{"label":"The ilan was created in the in Spain.","url":"http://localhost:8080/exist/apps/tracing.ilanot.org/event/569-01.xml"}}},"geometry":{"type":"Point","coordinates":[-4,40]},"types":[{"label":"Manuscript Production"}]},{"@id":"https://w3id.org/Events/85d42787-f7cb-42a2-8dee-2e34e2f4540d","type":"Feature","properties":{"title":"Italy","properties":{"properties":{"label":"The ilan was created in the 17th century in Italy.","url":"http://localhost:8080/exist/apps/tracing.ilanot.org/event/469-01.xml"}}},"geometry":{"type":"Point","coordinates":[12.83333,42.83333]},"types":[{"label":"Manuscript Production"}]},{"@id":"https://w3id.org/Events/d5fd7734-a6fb-42b4-9942-43e7d8347e80","type":"Feature","properties":{"title":"Italy","properties":{"properties":{"label":"The ilan was created in the in Italy.","url":"http://localhost:8080/exist/apps/tracing.ilanot.org/event/64-01.xml"}}},"geometry":{"type":"Point","coordinates":[12.83333,42.83333]},"types":[{"label":"Manuscript Production"}]},{"@id":"https://w3id.org/Events/78420272-1aa8-46b8-975f-53564de2ba13","type":"Feature","properties":{"title":"Vatican City","properties":{"properties":{"label":"The most recent known holder of this ilan is the Biblioteca Apostolica Vaticana, Vatican City.","url":"http://localhost:8080/exist/apps/tracing.ilanot.org/event/377-99.xml"}}},"geometry":{"type":"Point","coordinates":[12.4534,41.9029]},"types":[{"label":"Last Known Owner"}]},{"@id":"https://w3id.org/Events/d19257bb-7871-46cb-b886-cbcac15d173d","type":"Feature","properties":{"title":"Jerusalem","properties":{"properties":{"label":"The most recent known holder of this ilan is the National Library of Israel, Jerusalem.","url":"http://localhost:8080/exist/apps/tracing.ilanot.org/event/426-99.xml"}}},"geometry":{"type":"Point","coordinates":[35.2137,31.7683]},"types":[{"label":"Last Known Owner"}]},